名称,地址,经度,纬度,年龄,性别,cityname,产品类型,付款方式,合同总价,合同面积,成交单价,房间结构,项目名称
邢义,世纪大道49,120.3041223,30.41116154,30,男,杭州市,商业-公寓,商业贷款,1169340,88.62,13194.99,三室两厅一卫,七里香都
马炳,藕花洲大街西段620号,120.2472378,30.39541172,30,男,杭州市,商业-公寓,组合贷款,1210482,89.17,13574.99,三室两厅一卫,七里香都
崔雨,尚德路39号,120.161822,30.3842796,30,男,杭州市,住宅-小高层,组合贷款,1198585,88.62,13524.99,三室两厅一卫,七里香都
邢丽,玉琮路与玉管路交叉口西北100米,120.0476212,30.38213375,30,女,杭州市,住宅-小高层,商业贷款,1670521,126.22,13234.99,四室两厅两卫,七里香都
曹楠,临半路90号,120.1884295,30.37899737,30,男,杭州市,住宅-小高层,组合贷款,1164618,88.51,13158.04,三室两厅一卫,七里香都
张欣,吴家墩东苑27号,120.1530354,30.36798234,30,女,杭州市,商业-公寓,商业贷款,1210241,88.63,13654.98,三室两厅一卫,七里香都
徐霞,滨河南路与玉鸟路交叉口西北150米,120.026684,30.36714724,30,男,杭州市,商业-公寓,商业贷款,1523305,114.75,13274.99,三室两厅两卫,七里香都
徐霞 (1),紫丁香街239号,120.2225862,30.35786806,30,女,杭州市,商业-公寓,商业贷款,1198890,89.17,13444.99,三室两厅一卫,七里香都
张欣 (1),半山路178号,120.1765736,30.35325155,30,男,杭州市,商业-公寓,商业贷款,1187361,88.51,13414.99,三室两厅一卫,七里香都
巩佃,乔井路与乔莫东路交叉口东南50米,120.2898523,30.35249278,30,男,杭州市,住宅-小高层,商业贷款,1187064,88.62,13394.99,三室两厅一卫,七里香都
张霄,环丁路10号3层,120.223257,30.34979289,30,男,杭州市,商业-商铺,商业贷款,1171911,89.13,13148.33,三室两厅一卫,七里香都
刘冠,勾庄路16号,120.0813414,30.34496475,30,男,杭州市,住宅-小高层,组合贷款,1174783,89.02,13196.84,三室两厅一卫,七里香都
邵景,留石快速路与石祥路交叉口西南100米,120.1557212,30.33382955,30,男,杭州市,住宅-小高层,组合贷款,1177373,88.63,13284.14,三室两厅一卫,七里香都
刘新,石祥路235号附近,120.1565065,30.33345705,30,男,杭州市,住宅-小高层,商业贷款,1542813,114.75,13444.99,三室两厅两卫,七里香都
王茗,长阳路330映月社区办公大楼,120.0899858,30.32979195,30,女,杭州市,住宅-小高层,商业贷款,1189722,88.62,13424.98,三室两厅一卫,七里香都
范振,福城路199号,120.3293064,30.33019037,30,男,杭州市,住宅-小高层,商业贷款,1196812,88.62,13504.99,三室两厅一卫,七里香都
谭志,丽水路274号附近,120.136021,30.32494446,30,男,杭州市,住宅-小高层,组合贷款,1515552,114.08,13284.99,三室两厅两卫,七里香都
李青,俞章路88号浙宝大厦8楼(近重工路),120.1994083,30.32360272,30,女,杭州市,住宅-小高层,组合贷款,1174794,88.63,13255.04,三室两厅一卫,七里香都
王霞,下沙高教园区学源街998号浙江传媒学院,120.3365409,30.32387762,30,女,杭州市,商业-公寓,商业贷款,1201369,89.13,13478.84,三室两厅一卫,七里香都
刘静,职业技术学院-杭州图书馆分馆,120.3486938,30.32374114,30,女,杭州市,住宅-小高层,商业贷款,1700361,126.94,13395,四室两厅两卫,七里香都
马梦,学源街258号中国计量学院,120.3555565,30.32344223,30,女,杭州市,住宅-小高层,商业贷款,1535928,114.75,13384.99,三室两厅两卫,七里香都
王涵,下沙学源街118号,120.378524,30.32356109,30,女,杭州市,住宅-小高层,商业贷款,1529043,114.75,13324.99,三室两厅两卫,七里香都
陈曙,学源街18号(近杭州师范大学),120.3902371,30.32391744,30,女,杭州市,住宅-小高层,商业贷款,1538370,115.45,13324.99,三室两厅两卫,七里香都
刘召,高教园区学源街18号(近杭州师范大学),120.3901161,30.32406346,30,男,杭州市,商业-公寓,商业贷款,1196212,88.51,13514.99,三室两厅一卫,七里香都
王文,北城街55号人防大厦B座1-2层,120.121085,30.32238631,30,男,杭州市,住宅-小高层,商业贷款,1204885,89.02,13534.99,三室两厅一卫,七里香都
吴杰,丽水路201号附近,120.1353847,30.32105702,30,男,杭州市,商业-公寓,商业贷款,1209336,89.02,13584.99,三室两厅一卫,七里香都
仝兴,运河文化广场1号,120.1354338,30.3210421,30,女,杭州市,住宅-小高层,商业贷款,1493305,113.43,13164.99,三室两厅两卫,七里香都
王光,台州路217号,120.1472226,30.32246997,30,男,杭州市,住宅-小高层,商业贷款,1688192,126.22,13375,四室两厅两卫,七里香都
刘林,学源街258号,120.3704711,30.32192687,30,女,杭州市,住宅-小高层,组合贷款,1149733,88.62,12973.74,三室两厅一卫,七里香都
郑鹏,近郊古城路39号,119.7192207,30.32043684,30,男,杭州市,住宅-小高层,一次性,1202128,89.13,13487.36,三室两厅一卫,七里香都
魏淑,东新路685号附近,120.1687501,30.3202227,28,男,杭州市,住宅-小高层,商业贷款,1161898,88.63,13109.53,三室两厅一卫,七里香都
高月,笕桥农贸市场中区34号,120.2143269,30.3181179,28,男,杭州市,住宅-小高层,商业贷款,1678094,126.22,13294.99,四室两厅两卫,七里香都
刁鹏,笕桥路1号,120.2142968,30.31843882,28,男,杭州市,住宅-小高层,商业贷款,1189130,88.51,13434.98,三室两厅一卫,七里香都
杨光,东新街道绍兴路538号浙江三立开元名都大酒店,120.1544863,30.31284709,28,男,杭州市,住宅-高层,商业贷款,1203151,88.63,13574.99,三室两厅一卫,七里香都
曹凯,浜河路北150米,120.234232,30.31515244,28,男,杭州市,住宅-小高层,商业贷款,1689099,126.19,13385.36,四室两厅两卫,七里香都
王雪,水墩村文体活动中心2楼,120.2018895,30.31041604,28,男,杭州市,住宅-小高层,商业贷款,1496698,115.45,12964.04,三室两厅两卫,七里香都
谷长,杭乔路与胜稼路交叉口西北50米,120.2750654,30.30811603,28,男,杭州市,住宅-小高层,商业贷款,1196812,88.62,13504.99,三室两厅一卫,七里香都
刘正,胜稼路68附近,120.2752024,30.30822987,28,男,杭州市,住宅-高层,商业贷款,1198867,88.51,13544.99,三室两厅一卫,七里香都
王治,六号大街25号路口金沙学府物业对面,120.3791531,30.3077646,28,男,杭州市,住宅-小高层,商业贷款,1536086,114.08,13464.99,三室两厅两卫,七里香都
王正,学正街129号(工商南门对面),120.387208,30.30880554,28,女,杭州市,住宅-小高层,商业贷款,1200134,89.13,13464.98,三室两厅一卫,七里香都
张泉,白杨街道4号大街,120.3473141,30.30583272,28,男,杭州市,住宅-小高层,商业贷款,1214048,89.17,13614.98,三室两厅一卫,七里香都
杨继,环站北路与花园南路交叉口东南200米,120.2095671,30.30185834,28,男,杭州市,住宅-小高层,商业贷款,1197998,89.17,13434.99,三室两厅一卫,七里香都
徐耀,杭州经济技术开发区,120.3743645,30.30249334,28,男,杭州市,住宅-小高层,商业贷款,1637546,126.22,12973.74,四室两厅两卫,七里香都
杨继 (1),余杭塘路866号浙江大学紫金港校区,120.0827768,30.29851315,28,女,杭州市,住宅-小高层,商业贷款,1522397,114.08,13344.99,三室两厅两卫,七里香都
王帅,遵义路,120.0827998,30.29854213,28,女,杭州市,住宅-小高层,商业贷款,1176234,89.13,13196.84,三室两厅一卫,七里香都
孟凡,十号大街东6号,120.3840509,30.29874935,28,男,杭州市,住宅-小高层,商业贷款,1684124,126.96,13265,四室两厅两卫,七里香都
卢曙,之江东路331号梦琴湾小区,120.3857167,30.29974733,28,女,杭州市,住宅-小高层,商业贷款,1219128,89.02,13694.99,三室两厅一卫,七里香都
杜景,临江高新区科创大道3688号新创园405,120.5868529,30.30099971,28,男,杭州市,住宅-小高层,组合贷款,1165859,89.13,13080.43,三室两厅一卫,乐府江南
杨慧,信义坊步行街与湖墅南路交叉口西50米,120.1413314,30.29713819,28,女,杭州市,商业-公寓,商业贷款,1210241,88.63,13654.98,三室两厅一卫,乐府江南
杨婷,高教路附近,120.0106846,30.29506228,28,男,杭州市,住宅-小高层,商业贷款,1522158,114.75,13264.99,三室两厅两卫,乐府江南
付昊,余杭塘路515号矩阵国际4号楼1楼商铺529,120.1028598,30.29562784,28,女,杭州市,住宅-小高层,商业贷款,1527980,115.45,13234.99,三室两厅两卫,乐府江南
吴光,潮王路18号,120.1622036,30.29574836,28,男,杭州市,住宅-小高层,商业贷款,1700629,126.96,13395,四室两厅两卫,乐府江南
田梦,仓兴街184号附近,119.9927262,30.29192379,28,男,杭州市,住宅-高层,商业贷款,1208699,89.17,13555,三室两厅一卫,乐府江南
李承,紫霞街329号附近,120.0577981,30.29157674,28,女,杭州市,住宅-小高层,商业贷款,1193556,88.51,13484.98,三室两厅一卫,乐府江南
张致,文一路104号儒雅阁1层,120.1382416,30.29163188,28,女,杭州市,住宅-小高层,商业贷款,1202129,88.62,13564.99,三室两厅一卫,乐府江南
刘玉,万物桥巷与徐公巷交叉口东50米,120.1439411,30.29029523,28,女,杭州市,住宅-小高层,商业贷款,1205483,89.13,13525,三室两厅一卫,乐府江南
陈磊,八方城1楼,120.0408604,30.29020023,28,男,杭州市,商业-商铺,商业贷款,1206665,89.02,13554.99,三室两厅一卫,乐府江南
张鹏,教工路149浙江工商大学(花园北村北)附近,120.1283532,30.2877591,28,男,杭州市,住宅-小高层,商业贷款,1520115,114.08,13324.99,三室两厅两卫,乐府江南
耿怡,古墩路413-1号,120.0938677,30.28490509,28,男,杭州市,住宅-小高层,商业贷款,1516693,114.08,13294.99,三室两厅两卫,乐府江南
李晓,御景路东150米,120.2401699,30.28711245,28,女,杭州市,住宅-小高层,商业贷款,1198720,88.63,13524.99,三室两厅一卫,乐府江南
王通,五常街道文一西路998号海创园13幢1楼,120.0117519,30.28406931,28,女,杭州市,住宅-小高层,商业贷款,1204240,89.17,13504.99,三室两厅一卫,乐府江南
蒋家,古墩路与文二西路交叉口南150米,120.0945205,30.28277033,28,男,杭州市,住宅-小高层,商业贷款,1533752,115.45,13284.99,三室两厅两卫,乐府江南
孟凡 (1),益乐路48-10-3号附近,120.1088406,30.28295929,28,女,杭州市,住宅-小高层,商业贷款,1191494,88.62,13444.98,三室两厅一卫,乐府江南
包娟,新湾文化中心,120.5408387,30.28427989,28,女,杭州市,住宅-小高层,组合贷款,1198585,88.62,13524.99,三室两厅一卫,乐府江南
崔建,文二西路683号西溪文化创意产业园11栋,120.0713278,30.28154936,28,女,杭州市,住宅-小高层,一次性,1178872,88.51,13319.08,三室两厅一卫,乐府江南
邱实,万塘路258号,120.1207067,30.2819696,28,女,杭州市,住宅-高层,商业贷款,1494440,113.43,13175,三室两厅两卫,乐府江南
冯书,文三路140号浙江教育学院图书馆参考,120.1373261,30.28081159,28,女,杭州市,商业-商铺,商业贷款,1220634,89.13,13694.98,三室两厅一卫,乐府江南
冯可,东宁路与昙花庵路交叉口北50米,120.2218322,30.28104943,28,男,杭州市,商业-商铺,商业贷款,1517834,114.08,13305,三室两厅两卫,乐府江南
王玉,天目山路148号浙江大学西溪校区,120.1358285,30.27725967,28,女,杭州市,商业-商铺,商业贷款,1525600,114.75,13294.99,三室两厅两卫,乐府江南
王浩,义蓬镇,120.4824106,30.27786193,28,女,杭州市,住宅-小高层,商业贷款,1200673,89.17,13464.99,三室两厅一卫,乐府江南
钱秋,天目山路518号西溪国家湿地公园内,120.0662393,30.27598553,28,女,杭州市,住宅-小高层,商业贷款,1530289,115.45,13254.99,三室两厅两卫,乐府江南
齐吉,天目山路148号浙江大学西溪校区,120.1369194,30.27603144,28,女,杭州市,商业-商铺,商业贷款,1525600,114.75,13294.99,三室两厅两卫,乐府江南
宋海,天目山路34号,120.1369976,30.27608755,28,女,杭州市,住宅-小高层,商业贷款,1536061,115.45,13304.99,三室两厅两卫,乐府江南
王加,环城北路214号附近,120.1555858,30.27421432,28,男,杭州市,住宅-小高层,组合贷款,1534907,115.45,13294.99,三室两厅两卫,乐府江南
卜维,运新花苑一区6幢4-6号,120.2203001,30.27431174,28,女,杭州市,住宅-小高层,商业贷款,1530289,115.45,13254.99,三室两厅两卫,乐府江南
王艺,西溪路378号附近,120.1206524,30.27179152,28,女,杭州市,商业-公寓,商业贷款,1519898,115.45,13164.99,三室两厅两卫,乐府江南
徐保,体育场路与头营巷交叉口西50米,120.1766445,30.27283273,28,女,杭州市,商业-公寓,商业贷款,1503513,113.43,13254.99,三室两厅两卫,乐府江南
姜力,环城西路33号浙江科技大楼,120.1502736,30.27068709,28,男,杭州市,住宅-小高层,商业贷款,1195326,88.51,13504.98,三室两厅一卫,乐府江南
陈庆,高后线,119.5928864,30.26846406,28,男,杭州市,住宅-小高层,商业贷款,1699552,126.22,13465,四室两厅两卫,乐府江南
赵欣,曙光路73号,120.1321372,30.26575037,28,男,杭州市,住宅-小高层,商业贷款,1509186,113.43,13305,三室两厅两卫,乐府江南
张钊,曙光路75号,120.1303939,30.26555297,28,男,杭州市,住宅-小高层,商业贷款,1195040,88.62,13484.99,三室两厅一卫,乐府江南
李晴,曙光路与白沙泉支四路交叉口东100米,120.1316961,30.26602972,28,男,杭州市,住宅-小高层,商业贷款,1192381,88.62,13454.99,三室两厅一卫,乐府江南
郭立,庆春商圈凤起东路新城时代广场1幢3楼美吉姆内,120.202689,30.26749973,29,男,杭州市,住宅-小高层,商业贷款,1500111,113.43,13224.99,三室两厅两卫,乐府江南
丛吉,浙大路38号浙江大学玉泉校区,120.1157121,30.26523727,29,女,杭州市,住宅-小高层,商业贷款,1182936,88.51,13365,三室两厅一卫,乐府江南
王奕,三槐里18号,120.1619937,30.26326318,29,男,杭州市,住宅-小高层,商业贷款,1671783,126.22,13244.99,四室两厅两卫,乐府江南
徐黛,代运段与天竺路交叉口东150米,120.0358317,30.26151159,29,男,杭州市,住宅-高层,商业贷款,1479496,113.43,13043.25,三室两厅两卫,乐府江南
翟清,上八界巷与庆春路交叉口北150米,120.1685464,30.26150063,29,男,杭州市,住宅-小高层,商业贷款,1206373,89.13,13534.98,三室两厅一卫,乐府江南
褚光,太平门直街458号江干区文化中心6层,120.2016489,30.26264467,29,男,杭州市,住宅-小高层,商业贷款,1210830,89.13,13584.99,三室两厅一卫,乐府江南
焦方,新塘路58号新传媒产业大厦1层,120.2040407,30.26238908,29,女,杭州市,住宅-小高层,商业贷款,1529241,114.08,13404.99,三室两厅两卫,乐府江南
张爽,文化中心6楼,120.2016188,30.26260663,29,女,杭州市,住宅-小高层,商业贷款,1212612,89.13,13604.98,三室两厅一卫,乐府江南
皇甫,太平门直街458号,120.2018002,30.2625549,29,男,杭州市,住宅-小高层,商业贷款,1531523,114.08,13424.99,三室两厅两卫,乐府江南
阎康,环城北路88号,119.7231408,30.2589449,35,男,杭州市,住宅-小高层,商业贷款,1526960,114.08,13384.99,三室两厅两卫,乐府江南
韩智,长生路15号附近,120.1606058,30.25986788,35,女,杭州市,住宅-小高层,商业贷款,1660431,126.94,13080.44,四室两厅两卫,乐府江南
曹维,浣纱路254-4附近,120.162947,30.25725447,35,男,杭州市,住宅-小高层,商业贷款,1198654,89.02,13465,三室两厅一卫,乐府江南
孙艺,凯旋路与采菱路交叉口西北150米,120.1847773,30.25783677,35,男,杭州市,住宅-小高层,商业贷款,1695362,126.19,13434.99,四室两厅两卫,乐府江南
谭志 (1),庆春东路3号,120.1966466,30.25829153,35,男,杭州市,住宅-小高层,商业贷款,1215559,88.63,13714.98,三室两厅一卫,乐府江南
刘静 (1),北山街与杨公堤交叉口北50米,120.1265808,30.25490189,35,男,杭州市,住宅-小高层,组合贷款,1545108,114.75,13464.99,三室两厅两卫,乐府江南
管海,平海路58号平海旺角807室,120.1610093,30.2566979,35,男,杭州市,住宅-小高层,商业贷款,1699147,126.19,13464.99,四室两厅两卫,乐府江南
杨玉,浣纱路254号,120.1631005,30.25719377,35,男,杭州市,住宅-小高层,商业贷款,1696624,126.19,13445,四室两厅两卫,乐府江南
张强,浣纱路254号(近平海路),120.162928,30.25724144,35,男,杭州市,住宅-小高层,商业贷款,1520700,115.45,13171.94,三室两厅两卫,乐府江南
庞静,清吟街108号,120.1693482,30.25647056,35,男,杭州市,住宅-小高层,商业贷款,1521844,115.45,13181.84,三室两厅两卫,乐府江南
李召,大学路102号,120.1786297,30.25667081,35,男,杭州市,住宅-小高层,商业贷款,1209590,89.17,13564.99,三室两厅一卫,乐府江南
潘海,五安路9号,120.193348,30.25684441,35,女,杭州市,住宅-小高层,商业贷款,1211373,89.17,13584.98,三室两厅一卫,乐府江南
荆瑞,五安路9号,120.193348,30.25684441,35,女,杭州市,住宅-小高层,商业贷款,1211373,89.17,13584.98,三室两厅一卫,乐府江南
张乃,孤山路28号,120.13676,30.25259826,35,男,杭州市,住宅-小高层,商业贷款,1216724,89.17,13644.99,三室两厅一卫,乐府江南
陈祥,龙井路1号杭州西湖风景名胜区内,120.1368372,30.25267137,35,男,杭州市,住宅-小高层,商业贷款,1538370,115.45,13324.99,三室两厅两卫,乐府江南
李峰,龙井路1号杭州西湖风景名胜区内,120.1351959,30.25293988,35,男,杭州市,住宅-小高层,商业贷款,1538370,115.45,13324.99,三室两厅两卫,乐府江南
郝良,解放路111号金钱大厦8楼,120.1712171,30.25255539,35,男,杭州市,住宅-小高层,商业贷款,1694280,126.96,13344.99,四室两厅两卫,乐府江南
任荣,天柱街550号附近,119.811144,30.25108259,35,女,杭州市,住宅-小高层,商业贷款,1201564,89.17,13474.98,三室两厅一卫,乐府江南
赵鹏,钱江路附近,120.2037901,30.24969878,35,男,杭州市,住宅-小高层,商业贷款,1194431,89.17,13394.99,三室两厅一卫,乐府江南
王嫱,解放东路18号市民中心,120.2049419,30.24908641,35,男,杭州市,住宅-高层,商业贷款,1505842,115.45,13043.24,三室两厅两卫,乐府江南
李维,宁围镇高校园区浙江建设职业技术学院内,120.2939263,30.25145433,35,男,杭州市,住宅-小高层,商业贷款,1190326,88.51,13448.49,三室两厅一卫,乐府江南
申素,苕溪北路31号附近,119.7240967,30.24639913,35,女,杭州市,商业-公寓,商业贷款,1196812,88.62,13504.99,三室两厅一卫,乐府江南
王曈,五常路156号,120.0298107,30.24731564,35,女,杭州市,住宅-小高层,商业贷款,1510319,113.43,13314.99,三室两厅两卫,乐府江南
苏保,采荷街道,120.1898473,30.24806031,35,男,杭州市,住宅-小高层,商业贷款,1509186,113.43,13305,三室两厅两卫,乐府江南
肖鹏,秋涛路556附近,120.1965112,30.24635128,35,男,杭州市,住宅-小高层,商业贷款,1504200,113.43,13261.04,三室两厅两卫,乐府江南
刘红,解放东路58号,120.2036348,30.24877063,35,男,杭州市,住宅-小高层,商业贷款,1515991,113.43,13364.99,三室两厅两卫,乐府江南
夏明,解放东路58杭州钱江新城市民中心J3座,120.2036408,30.24878964,35,男,杭州市,住宅-小高层,商业贷款,1686930,126.22,13365,四室两厅两卫,乐府江南
刘秀,解放东路58号市民中心J楼,120.2036348,30.24877063,35,男,杭州市,住宅-小高层,商业贷款,1181620,88.51,13350.13,三室两厅一卫,乐府江南
王涛,中河中路62号,120.1687384,30.24444036,35,女,杭州市,住宅-小高层,商业贷款,1673881,126.22,13261.61,四室两厅两卫,乐府江南
王仁,学知路91号附近,120.2972699,30.24469444,35,女,杭州市,住宅-小高层,组合贷款,1181165,88.51,13344.99,三室两厅一卫,乐府江南
韩华,锦园街1-3,119.6978962,30.24186091,35,男,杭州市,住宅-小高层,商业贷款,1182633,88.62,13344.99,三室两厅一卫,乐府江南
张现,锦城街道临水路,119.7170764,30.24015297,35,男,杭州市,住宅-小高层,商业贷款,1169353,88.51,13211.54,三室两厅一卫,乐府江南
张娜,鸿宁路与鸿达路交叉口南100米,120.2565399,30.23843572,35,男,杭州市,住宅-小高层,商业贷款,1184705,88.51,13384.98,三室两厅一卫,乐府江南
李莉,衣锦街321号,119.72192,30.23677163,35,女,杭州市,住宅-小高层,商业贷款,1186178,88.62,13384.99,三室两厅一卫,乐府江南
应柯,杨梅山路388号,120.0523376,30.2353689,35,女,杭州市,住宅-小高层,商业贷款,1185591,88.51,13394.99,三室两厅一卫,乐府江南
王庆,文化路附近,120.4625701,30.23562954,35,女,杭州市,住宅-小高层,商业贷款,1520115,114.08,13324.99,三室两厅两卫,乐府江南
王荣,萧钱线附近,120.2537063,30.23455106,35,女,杭州市,住宅-小高层,商业贷款,1216178,89.13,13644.99,三室两厅一卫,乐府江南
林杰,天竺路317号,120.0930267,30.22963771,35,女,杭州市,住宅-高层,商业贷款,1514411,114.08,13274.99,三室两厅两卫,四季云顶
张登,中心大道附近,120.4167613,30.22895854,35,女,杭州市,住宅-高层,商业贷款,1513270,114.08,13264.99,三室两厅两卫,四季云顶
李奥,政和路37号,120.5451832,30.22849678,35,女,杭州市,住宅-高层,商业贷款,1196324,89.02,13438.82,三室两厅一卫,四季云顶
芦勇,留下街道留和路139号东信和创园5幢,120.0426738,30.22645065,35,男,杭州市,住宅-小高层,商业贷款,1686528,126.19,13364.99,四室两厅两卫,四季云顶
张连,留和路318号(近高埠头),120.0244592,30.22245243,35,男,杭州市,住宅-小高层,商业贷款,1204924,88.63,13594.99,三室两厅一卫,四季云顶
李培,留和路309号,120.0309056,30.22140964,35,男,杭州市,住宅-小高层,商业贷款,1203151,88.63,13574.99,三室两厅一卫,四季云顶
潘文,外国语学院图书馆留和路309,120.0309076,30.22140663,35,女,杭州市,住宅-小高层,商业贷款,1523305,114.75,13274.99,三室两厅两卫,四季云顶
王光 (1),振宁路229号附近,120.2776735,30.21610719,35,女,杭州市,住宅-小高层,商业贷款,1519863,114.75,13244.99,三室两厅两卫,四季云顶
赵娜,宁围镇文明路227号,120.2719246,30.21420342,35,男,杭州市,住宅-小高层,商业贷款,1699359,126.96,13385,四室两厅两卫,四季云顶
刘杰,丹枫路,120.2060496,30.21204836,35,男,杭州市,住宅-小高层,商业贷款,1542988,115.45,13364.99,三室两厅两卫,四季云顶
戴思,阡陌路555号海康威视二期,120.2156904,30.21192088,35,男,杭州市,住宅-小高层,商业贷款,1171572,89.17,13138.63,三室两厅一卫,四季云顶
李文,中沙村108号中沙村村委会附近,120.5055769,30.19802563,35,女,杭州市,住宅-小高层,商业贷款,1204240,89.17,13504.99,三室两厅一卫,四季云顶
张秀,众安路与孙家弄交叉口西南50米,120.3995926,30.19635341,35,女,杭州市,住宅-小高层,商业贷款,1517589,115.45,13144.99,三室两厅两卫,四季云顶
孟浩,学工路30号,120.5847799,30.19487434,35,女,杭州市,住宅-小高层,商业贷款,1500271,115.45,12994.98,三室两厅两卫,四季云顶
聂鑫,滨盛路3818-3820号,120.1625301,30.19324775,35,男,杭州市,住宅-小高层,商业贷款,1500111,113.43,13224.99,三室两厅两卫,四季云顶
吕磊,网商路699号阿里巴巴园区内,120.1857846,30.19166072,35,女,杭州市,住宅-小高层,商业贷款,1192381,88.62,13454.99,三室两厅一卫,四季云顶
庄沭,金惠路306号附近,120.2658403,30.18876298,35,男,杭州市,住宅-小高层,商业贷款,1690716,126.22,13394.99,四室两厅两卫,四季云顶
胡昕,工人路410号,120.2959809,30.19040877,35,男,杭州市,住宅-小高层,商业贷款,1194442,88.51,13494.99,三室两厅一卫,四季云顶
房含,武肃路297号附近,120.4038342,30.19082841,35,女,杭州市,住宅-小高层,商业贷款,1491036,113.43,13144.99,三室两厅两卫,四季云顶
谢若,市心中路958号,120.2631747,30.18724596,35,男,杭州市,住宅-小高层,商业贷款,1207265,89.13,13544.99,三室两厅一卫,四季云顶
张鹏 (1),双圩村50附近,120.3520769,30.18775811,35,男,杭州市,住宅-小高层,组合贷款,1199775,89.02,13477.59,三室两厅一卫,四季云顶
扈学,太阳镇太阳大街后泷山86号,119.295114,30.18530427,35,男,杭州市,住宅-小高层,商业贷款,1212612,89.13,13604.98,三室两厅一卫,四季云顶
周建,东灵路205号,120.4546645,30.18195107,35,男,杭州市,住宅-小高层,商业贷款,1212006,89.02,13614.99,三室两厅一卫,四季云顶
吴琼,浙江中医药大学滨江学院5号楼,120.145145,30.17603116,35,女,杭州市,住宅-小高层,商业贷款,1210830,89.13,13584.99,三室两厅一卫,四季云顶
满烁,平安桥西路与蒲场南路交叉口西南50米,120.1567092,30.17697662,35,男,杭州市,住宅-小高层,商业贷款,1170465,89.02,13148.34,三室两厅一卫,四季云顶
刘环,市心中路301号莱茵达商厦四层,120.2619786,30.17623718,35,男,杭州市,住宅-小高层,商业贷款,1656738,126.94,13051.35,四室两厅两卫,四季云顶
江鑫,滨文路690号附近,120.1335025,30.17144499,35,男,杭州市,住宅-小高层,商业贷款,1203995,89.02,13524.99,三室两厅一卫,四季云顶
徐浩,党党线,120.5232009,30.16512109,35,男,杭州市,住宅-小高层,商业贷款,1493877,114.08,13094.99,三室两厅两卫,四季云顶
王率,龙岗街127号,119.1252592,30.16186889,35,男,杭州市,住宅-小高层,商业贷款,1694013,126.94,13344.99,四室两厅两卫,四季云顶
路环,凯迪路与镇北路交叉口东南50米,120.0620326,30.16150201,35,男,杭州市,住宅-高层,商业贷款,1531338,114.75,13344.99,三室两厅两卫,四季云顶
翟彦,杭州市,120.1845987,30.16191777,35,男,杭州市,住宅-小高层,商业贷款,1532485,114.75,13354.99,三室两厅两卫,四季云顶
王鹏,百尺溇路72附近,120.2661396,30.16098479,35,男,杭州市,商业-公寓,商业贷款,1545108,114.75,13464.99,三室两厅两卫,四季云顶
孔凡,市心南路175房地产大厦8层,120.2632728,30.16119986,35,男,杭州市,商业-公寓,商业贷款,1215559,88.63,13714.98,三室两厅一卫,四季云顶
郭珊,人民路717号附近,120.2833358,30.16326353,35,男,杭州市,商业-公寓,商业贷款,1538223,114.75,13404.99,三室两厅两卫,四季云顶
王燕,音乐学院9号楼,120.0520585,30.15810514,35,女,杭州市,住宅-小高层,商业贷款,1537076,114.75,13395,三室两厅两卫,四季云顶
王浩 (1),周家河头与蔡家弄交叉口西南50米,120.2648838,30.16001677,35,女,杭州市,住宅-小高层,商业贷款,1502651,114.75,13095,三室两厅两卫,四季云顶
孙金,蔡家弄附近,120.2645579,30.15990601,35,男,杭州市,住宅-高层,商业贷款,1187950,88.62,13404.99,三室两厅一卫,四季云顶
徐燕,高桥路19号附近,120.2672837,30.15615103,35,男,杭州市,住宅-小高层,商业贷款,1203104,89.02,13514.99,三室两厅一卫,四季云顶
梁立,沈家里路158号,120.2485073,30.15525199,35,男,杭州市,住宅-小高层,商业贷款,1700438,126.94,13395.6,四室两厅两卫,四季云顶
张海,南秀路1228号附近,120.2740139,30.15045094,35,男,杭州市,住宅-小高层,商业贷款,1686552,126.94,13286.21,四室两厅两卫,四季云顶
吕姗,湘湖路3388,120.1775332,30.1262719,35,女,杭州市,住宅-小高层,商业贷款,1697822,126.94,13375,四室两厅两卫,四季云顶
王宇,临安市,119.2317171,30.10326903,35,男,杭州市,住宅-小高层,商业贷款,1691978,126.22,13404.99,四室两厅两卫,四季云顶
陈扬,龙山路225物资大楼4层,119.950426,30.05404566,35,男,杭州市,住宅-小高层,商业贷款,1714324,126.94,13504.99,四室两厅两卫,四季云顶
路文,富春路3号,119.9581863,30.04946033,35,男,杭州市,住宅-小高层,商业贷款,1713054,126.94,13494.99,四室两厅两卫,四季云顶
甘世,富春街4号,119.9581364,30.04933345,35,男,杭州市,住宅-小高层,商业贷款,1212015,88.63,13675,三室两厅一卫,四季云顶
陈顺,东藩南路与东藩路交叉口西南150米临浦文化馆,120.2431881,30.04855375,35,男,杭州市,住宅-小高层,商业贷款,1201564,89.17,13474.98,三室两厅一卫,四季云顶
吕小,华诚路附近,120.1877453,30.0186233,35,男,杭州市,住宅-小高层,商业贷款,1679045,126.96,13224.99,四室两厅两卫,四季云顶
郑凯,凌溪路70号,120.194083,30.01400691,35,男,杭州市,住宅-小高层,组合贷款,1185292,88.62,13374.99,三室两厅一卫,四季云顶
霍艳,东市路与学士路交叉口东北50米,119.9999922,30.00624448,35,男,杭州市,住宅-小高层,商业贷款,1183520,89.02,13294.99,三室两厅一卫,四季云顶
李业,分水镇玉华路315号,119.4287975,29.92952248,35,男,杭州市,住宅-小高层,商业贷款,1188246,88.51,13424.99,三室两厅一卫,四季云顶
陈健,徐裘线与新罗线交叉口东南50米,119.7052488,29.92805078,35,女,杭州市,住宅-小高层,商业贷款,1203995,89.02,13524.99,三室两厅一卫,四季云顶
殷冠,锦华路331号附近,119.6093499,29.83392635,35,男,杭州市,住宅-高层,商业贷款,1217961,89.13,13664.99,三室两厅一卫,四季云顶
王巍,桐常线和柴雅线的交叉口附近,119.7724131,29.81269219,35,女,杭州市,住宅-高层,商业贷款,1527895,114.75,13314.99,三室两厅两卫,四季云顶
张晓,广场路与邮电路交叉口西50米,119.6731696,29.81034376,35,男,杭州市,住宅-小高层,商业贷款,1538223,114.75,13404.99,三室两厅两卫,四季云顶
闫坤,莪山乡新丰民族村戴家山7号,119.5172977,29.80720613,35,男,杭州市,住宅-小高层,商业贷款,1185721,88.62,13379.84,三室两厅一卫,四季云顶
顾慧,桐庐白云源路608号,119.668035,29.80271839,35,女,杭州市,住宅-小高层,商业贷款,1536086,114.08,13464.99,三室两厅两卫,四季云顶
何苗,桐君街道迎宾路50号,119.6680171,29.80264743,35,女,杭州市,住宅-小高层,商业贷款,1514411,114.08,13274.99,三室两厅两卫,西山枫林
王海,迎宾路50号,119.668042,29.80272437,35,女,杭州市,住宅-小高层,商业贷款,1694099,126.19,13424.99,四室两厅两卫,西山枫林
王洪,桐君街道迎宾路50号,119.668027,29.8027594,35,女,杭州市,住宅-小高层,商业贷款,1514411,114.08,13274.99,三室两厅两卫,西山枫林
刘祥,团山线与506县道交叉口东50米,119.5699183,29.79880978,35,女,杭州市,住宅-小高层,商业贷款,1212265,89.17,13594.99,三室两厅一卫,西山枫林
孙玉,团山线与506县道交叉口东50米,119.5699053,29.79880077,35,女,杭州市,住宅-小高层,商业贷款,1212265,89.17,13594.99,三室两厅一卫,西山枫林
邱英,桐庐白云源路608号,119.6949651,29.79821406,35,女,杭州市,住宅-小高层,商业贷款,1536086,114.08,13464.99,三室两厅两卫,西山枫林
纪世,302省道,119.188545,29.73551549,35,男,杭州市,住宅-小高层,商业贷款,1532485,114.75,13354.99,三室两厅两卫,西山枫林
张冉,亚环大道与毛雅段交叉口南150米,119.9350377,29.70179084,35,女,杭州市,住宅-小高层,商业贷款,1678957,126.19,13304.99,四室两厅两卫,西山枫林
吴永,亚环大道与毛雅段交叉口南150米,119.9350447,29.70179783,35,女,杭州市,住宅-小高层,商业贷款,1678957,126.19,13304.99,四室两厅两卫,西山枫林
邢振,育才东路278附近,119.5404867,29.61943938,35,女,杭州市,住宅-小高层,组合贷款,1461709,113.43,12886.44,三室两厅两卫,西山枫林
赵建,新安大街,119.0319444,29.6106431,35,女,杭州市,住宅-小高层,组合贷款,1154031,88.62,13022.24,三室两厅一卫,西山枫林
王囡,排岭南路54号,119.0356085,29.60375432,35,男,杭州市,商业-商铺,商业贷款,1524452,114.75,13284.98,三室两厅两卫,西山枫林
李春,排岭南路与炉峰路交叉口南150米,119.0367176,29.60230416,35,男,杭州市,住宅-小高层,商业贷款,1526748,114.75,13304.99,三室两厅两卫,西山枫林
宋琦,功臣路,119.1072682,29.59757574,35,男,杭州市,住宅-高层,商业贷款,1167194,88.51,13187.14,三室两厅一卫,西山枫林
刘淑,莲花镇郭村,119.3057587,29.57399659,35,男,杭州市,商业-公寓,商业贷款,1497842,113.43,13204.99,三室两厅两卫,西山枫林
王建,淳安县,118.7901446,29.54655894,35,男,杭州市,住宅-小高层,商业贷款,1172215,88.63,13225.94,三室两厅一卫,西山枫林
苗壮,梅花南路东100米,119.4926211,29.54164809,35,男,杭州市,住宅-小高层,商业贷款,1541665,114.75,13434.99,三室两厅两卫,西山枫林
祁亚,梅花南路东100米,119.4926261,29.54162812,39,男,杭州市,住宅-小高层,商业贷款,1541665,114.75,13434.99,三室两厅两卫,西山枫林
戈冉,广兴路8号,119.2873881,29.48382555,39,男,杭州市,住宅-小高层,商业贷款,1511454,113.43,13324.99,三室两厅两卫,西山枫林
张海 (1),洋富潭路50号,119.2972962,29.48064359,39,女,杭州市,住宅-小高层,商业贷款,1473405,114.08,12915.54,三室两厅两卫,西山枫林
孙宗,政法路16号,119.2776298,29.47964331,39,女,杭州市,住宅-高层,商业贷款,1653043,126.94,13022.24,四室两厅两卫,西山枫林
马桂,黄张线与黄泥墩线交叉口东南150米附近,119.2627832,29.44063136,39,男,杭州市,住宅-小高层,公积金贷款,1714324,126.94,13504.99,四室两厅两卫,西山枫林
田爱,郑鸠线附近,118.5538094,29.43090671,39,女,杭州市,商业-公寓,商业贷款,1196061,88.63,13494.99,三室两厅一卫,西山枫林
姚通,中山路18附近,119.2163484,29.36099066,39,女,杭州市,住宅-小高层,商业贷款,1526825,115.45,13224.99,三室两厅两卫,西山枫林
苏红,305省道与613县道交叉口南100米,119.1804887,29.33673873,39,男,杭州市,商业-公寓,商业贷款,1539509,114.08,13494.99,三室两厅两卫,西山枫林
申素 (1),大长线附近,119.1057364,29.30759854,39,男,杭州市,商业-公寓,商业贷款,1528101,114.08,13394.99,三室两厅两卫,西山枫林
杨曦,仁和镇清合嘉园东区4幢1单元402室,120.0877164,30.44561641,39,男,杭州市,住宅-高层,商业贷款,1196873,89.02,13444.99,三室两厅一卫,西山枫林
李晓 (1),东湖南路177号,120.306256,30.41574875,39,男,杭州市,住宅-小高层,商业贷款,1649197,126.96,12989.89,四室两厅两卫,西山枫林
王国,九曲港路1号,120.0953134,30.36230882,39,男,杭州市,住宅-小高层,商业贷款,1498976,113.43,13214.99,三室两厅两卫,西山枫林
李中,丁城路与笕丁路交叉口东北150米,120.2092256,30.36000681,39,男,杭州市,住宅-小高层,商业贷款,1678094,126.22,13294.99,四室两厅两卫,西山枫林
都婷,丁桥镇建塘村高地上46-3,120.2137261,30.34967276,39,男,杭州市,住宅-小高层,商业贷款,1184405,88.62,13364.99,三室两厅一卫,西山枫林
孔凡 (1),新华路附近,120.3025836,30.34854468,39,女,杭州市,住宅-小高层,商业贷款,1529241,114.08,13404.99,三室两厅两卫,西山枫林
马孟,莫干山路1515浙江交通职业技术学院,120.0838201,30.34617937,39,男,杭州市,住宅-小高层,商业贷款,1509186,113.43,13305,三室两厅两卫,西山枫林
何秋,白杨街道下沙高教园区学源街998号,120.3386867,30.3236947,39,男,杭州市,住宅-小高层,组合贷款,1523537,114.08,13354.99,三室两厅两卫,西山枫林
车涛,德胜东路与德胜快速路出口交叉口东南200米,120.3398969,30.32402045,39,男,杭州市,住宅-小高层,组合贷款,1199543,89.02,13474.98,三室两厅一卫,西山枫林
袁海,沈括路附近,120.360725,30.32356571,39,男,杭州市,住宅-小高层,商业贷款,1212015,88.63,13675,三室两厅一卫,西山枫林
牛艳,德胜东路与文津路交叉口西南150米,120.3621396,30.32377875,39,男,杭州市,住宅-小高层,商业贷款,1503513,113.43,13254.99,三室两厅两卫,西山枫林
陈焕,学源街,120.3864017,30.32344306,39,女,杭州市,住宅-高层,商业贷款,1527664,114.08,13391.16,三室两厅两卫,西山枫林
阎福,学源街浙江财经大学体育馆,120.3866707,30.32348292,39,女,杭州市,住宅-小高层,商业贷款,1531523,114.08,13424.99,三室两厅两卫,西山枫林
张红,白杨街道学源街18号,120.3960741,30.32355133,39,男,杭州市,商业-公寓,商业贷款,1205810,88.63,13604.99,三室两厅一卫,西山枫林
李光,台州路217号,120.1473399,30.32295511,39,男,杭州市,住宅-小高层,商业贷款,1688192,126.22,13375,四室两厅两卫,西山枫林
牛一一,下沙学源街68号,120.3451277,30.32247538,39,女,杭州市,商业-公寓,商业贷款,1693241,126.22,13415,四室两厅两卫,西山枫林
李甜甜,学源街258号中国计量大学,120.3595863,30.32156657,39,女,杭州市,商业-公寓,商业贷款,1697822,126.94,13375,四室两厅两卫,西山枫林
许智,下沙经济开发区,120.3765348,30.32228091,39,女,杭州市,商业-公寓,商业贷款,1500989,114.08,13157.34,三室两厅两卫,西山枫林
李慧,沈家路111号现代创意园内5号楼,120.175391,30.31837436,39,男,杭州市,商业-公寓,商业贷款,1677742,126.19,13295.36,四室两厅两卫,西山枫林
张娟,下沙街道学林街280-300号杭州电子科技大学内,120.3355528,30.31913608,39,女,杭州市,商业-公寓,商业贷款,1166197,88.63,13158.04,三室两厅一卫,西山枫林
李南,下沙二号大街1号杭州电子科技大学内,120.335448,30.31825039,39,女,杭州市,商业-公寓,商业贷款,1530190,114.75,13334.99,三室两厅两卫,西山枫林
裴舫,下沙高教园东区学林街280号,120.3801459,30.31871649,39,女,杭州市,商业-公寓,商业贷款,1540517,114.75,13424.98,三室两厅两卫,西山枫林
邵华,云涛南路,120.3854681,30.31886813,39,女,杭州市,商业-公寓,商业贷款,1689201,126.96,13304.99,四室两厅两卫,西山枫林
张红霞,下沙街道学林街280-300号杭州电子科技大学,120.335487,30.31738943,39,女,杭州市,商业-公寓,商业贷款,1200637,88.51,13564.99,三室两厅一卫,西山枫林
陈亚楠,2号大街5号,120.3507118,30.31750163,39,男,杭州市,商业-公寓,商业贷款,1176510,89.02,13216.24,三室两厅一卫,西山枫林
白冰冰,白杨街道,120.3667483,30.31607989,39,男,杭州市,商业-公寓,商业贷款,1694013,126.94,13344.99,四室两厅两卫,西山枫林
杨梅,2号大街928号,120.3514621,30.31466578,39,男,杭州市,商业-公寓,商业贷款,1692838,126.19,13414.99,四室两厅两卫,西山枫林
周楠,白杨街道下沙高教园区,120.3754012,30.3122952,39,男,杭州市,商业-公寓,商业贷款,1501245,113.43,13234.99,三室两厅两卫,西山枫林
张磊,白石巷121号,120.1590258,30.31188355,39,男,杭州市,商业-公寓,组合贷款,1195040,88.62,13484.99,三室两厅一卫,西山枫林
颜满,25号大街,120.3783122,30.30998299,39,男,杭州市,住宅-小高层,商业贷款,1188246,88.51,13424.99,三室两厅一卫,西山枫林
黎明霞,下沙经济开发区4号街浙江育英职业技术学院内,120.3457422,30.30649733,39,女,杭州市,商业-公寓,商业贷款,1212900,88.63,13684.98,三室两厅一卫,西山枫林
周宏,4号大街下沙经济开发区4号街,120.3472302,30.30661077,39,男,杭州市,商业-公寓,商业贷款,1196061,88.63,13494.99,三室两厅一卫,西山枫林
朱光,霞湾巷65号,120.1449683,30.29821409,39,女,杭州市,商业-公寓,组合贷款,1195926,88.62,13494.99,三室两厅一卫,西山枫林
侯云,莫干山路双荡弄120号,120.1407431,30.29344865,39,男,杭州市,住宅-小高层,商业贷款,1327112,97.31,13637.98,三室两厅一卫,西山枫林
孙玉 (1),潮王路18号浙江工业大学内,120.1593422,30.2941682,39,男,杭州市,住宅-小高层,商业贷款,1330033,97.31,13668,三室两厅一卫,西山枫林
孙霞,河庄河中路德安救生科技大楼内,120.4592025,30.28817651,39,男,杭州市,住宅-高层,商业贷款,1333925,97.31,13708,三室两厅一卫,西山枫林
索玉,文一西路960号浙江理工大学科技与艺术学院,120.0203651,30.28578647,39,女,杭州市,住宅-小高层,商业贷款,1170571,88.91,13165.8,三室两厅一卫,西山枫林
滕长,文二西路698号,120.0823456,30.28647966,39,女,杭州市,住宅-小高层,组合贷款,1191551,88.44,13472.99,三室两厅一卫,西山枫林
高玉,文二西路698号,120.08326,30.28563932,42,女,杭州市,住宅-小高层,组合贷款,1191551,88.44,13472.99,三室两厅一卫,西山枫林
肖志,文二路125号,120.1350088,30.2847527,42,女,杭州市,住宅-小高层,商业贷款,1548550,114.75,13494.99,三室两厅两卫,西山枫林
董函,华星路与益乐路交叉口西南150米,120.1086145,30.28030742,42,男,杭州市,住宅-小高层,商业贷款,1509707,114.75,13156.49,三室两厅两卫,西山枫林
张丹,教工路49号,120.1299766,30.2814479,42,男,杭州市,住宅-高层,商业贷款,1681881,126.22,13325,四室两厅两卫,西山枫林
袁斐,义蓬镇横一线西侧,120.4824558,30.27772908,42,女,杭州市,住宅-小高层,商业贷款,2003289,143.42,13967.99,四室两厅两卫,西山枫林
李健,天目山路81号,120.1437771,30.27371063,42,女,杭州市,住宅-小高层,商业贷款,1164113,88.55,13146.39,三室两厅一卫,西山枫林
史书,体育场路200号,120.1683097,30.27305615,42,男,杭州市,住宅-小高层,商业贷款,1205430,88.55,13612.99,三室两厅一卫,西山枫林
李雨,体育场路169号,120.1691444,30.2710949,42,男,杭州市,住宅-高层,商业贷款,1666588,126.94,13128.94,四室两厅两卫,西山枫林
孙龙,体育场路200号,120.1681803,30.27290092,42,男,杭州市,住宅-小高层,商业贷款,1205430,88.55,13612.99,三室两厅一卫,西山枫林
黄丽,航海路603号(浙江互联网产业大厦东侧),120.2236961,30.27241879,42,男,杭州市,住宅-小高层,商业贷款,1996119,143.42,13918,四室两厅两卫,西山枫林
徐同,玉古路172号,120.1253397,30.27075998,42,女,杭州市,住宅-小高层,商业贷款,2011894,143.42,14027.99,四室两厅两卫,西山枫林
吴红,玉古路168号,120.1271999,30.27050731,42,女,杭州市,商业-公寓,组合贷款,1213787,89.02,13634.99,三室两厅一卫,西山枫林
康凯,黄龙路1号黄龙体育中心贵宾会员部(浙江省老年体育活动中心),120.1303514,30.27037647,42,男,杭州市,住宅-高层,组合贷款,1208156,89.13,13554.99,三室两厅一卫,西山枫林
邓志,黄龙路1号(近曙光路),120.1291477,30.268773,42,男,杭州市,住宅-高层,商业贷款,1214048,89.17,13614.98,三室两厅一卫,西山枫林
曲俊,凯旋路268号浙江大学华家池校区华池南路,120.1925869,30.27023499,42,男,杭州市,住宅-小高层,商业贷款,2009026,143.42,14007.99,四室两厅两卫,西山枫林
李在,浙大路38号浙江大学玉泉校区,120.1185686,30.26679483,42,女,杭州市,住宅-小高层,商业贷款,1182936,88.51,13365,三室两厅一卫,西山枫林
张林,武林路77号省群众艺术馆,120.1557482,30.26286165,42,女,杭州市,住宅-小高层,商业贷款,1354081,97.29,13917.99,三室两厅一卫,西山枫林
贾广,代运段与天竺路交叉口东南150米,120.0357738,30.26087478,42,男,杭州市,住宅-小高层,商业贷款,1681481,126.19,13324.99,四室两厅两卫,西山枫林
刘丹,钱潮路12号(近富春路),120.2191261,30.25911803,42,男,杭州市,住宅-小高层,商业贷款,1638770,126.22,12983.44,四室两厅两卫,西山枫林
程贯,钱宁线浙江体育职业技术学院,120.2910718,30.25812521,42,男,杭州市,住宅-小高层,公积金贷款,1513723,113.43,13345,三室两厅两卫,西山枫林
李琬,环北路88号,119.7233952,30.25480803,42,男,杭州市,住宅-小高层,商业贷款,1526558,115.36,13232.99,三室两厅两卫,西山枫林
周志,西溪路896号万向职业技术学院内,120.0695075,30.2569055,42,女,杭州市,住宅-小高层,商业贷款,1201279,88.44,13582.98,三室两厅一卫,西山枫林
房红,教工路49号浙江体育职业技术学院,120.2872337,30.25688897,42,男,杭州市,住宅-小高层,商业贷款,1517962,113.34,13392.99,三室两厅两卫,西山枫林
冯延,学知路与弘慧路交叉口东北200米浙江建设职业技术学院体育馆,120.291739,30.24780503,42,女,杭州市,住宅-小高层,组合贷款,1493339,115.45,12934.94,三室两厅两卫,西山枫林
张帅,金瑜萍锦北街道,119.7038392,30.24259702,42,男,杭州市,住宅-小高层,商业贷款,1998987,143.42,13937.99,四室两厅两卫,西山枫林
吴尚,锦城街道,119.6819597,30.23692248,42,男,杭州市,住宅-小高层,一次性,1958836,143.31,13668.52,四室两厅两卫,西山枫林
魏法,飞虹路,120.2242584,30.2314875,42,男,杭州市,住宅-小高层,商业贷款,1705378,126.86,13442.99,四室两厅两卫,西山枫林
李冰,候潮路与钱江路交叉口西100米,120.179597,30.22601581,42,男,杭州市,住宅-小高层,商业贷款,1521053,115.45,13174.99,三室两厅两卫,西山枫林
冷冰,宁围镇文明路328号江宁大厦a座19层,120.266925,30.21511581,42,男,杭州市,住宅-小高层,商业贷款,1695765,126.22,13434.99,四室两厅两卫,西山枫林
祭欣,江南大道春晓路411号,120.208655,30.20553108,42,男,杭州市,住宅-小高层,商业贷款,1343379,97.29,13807.99,三室两厅一卫,西山枫林
吴晓,九州路临安市体育文化会展中心东门1号附近,119.6896183,30.20329287,42,男,杭州市,住宅-小高层,商业贷款,1320301,97.31,13567.99,三室两厅一卫,西山枫林
岳建,江虹路与滨和路交叉口东南150米,120.1991871,30.19799135,42,男,杭州市,住宅-小高层,组合贷款,1164383,88.44,13165.8,三室两厅一卫,西山枫林
张小,滨安路1190号智汇领地科技园A栋三楼锐菲特健身中心,120.1702886,30.18890452,42,男,杭州市,住宅-小高层,商业贷款,1206915,89.17,13534.99,三室两厅一卫,西山枫林
赵敏,胜利中路与胜利直路交叉口东100米,120.3871188,30.19065505,42,男,杭州市,住宅-小高层,商业贷款,1983123,143.31,13837.99,四室两厅两卫,西山枫林
蒋思,诚业路415号,120.165643,30.1862779,42,男,杭州市,住宅-高层,商业贷款,1540401,115.36,13352.99,三室两厅两卫,西山枫林
梁迅,东灵路269号瓜沥镇文化体育中心体育馆,120.4546755,30.1818301,42,男,杭州市,住宅-高层,商业贷款,1184476,88.44,13392.99,三室两厅一卫,西山枫林
纪霞,浦沿街道滨文路548号,120.1439205,30.17747105,42,男,杭州市,住宅-小高层,公积金贷款,1667638,126.19,13215.29,四室两厅两卫,西山枫林
孙成,滨文路518浙江艺术职业学院,120.152893,30.17778465,42,男,杭州市,住宅-小高层,商业贷款,1685393,126.96,13274.99,四室两厅两卫,西山枫林
贾丽,滨文路138号附近,120.1566603,30.17460262,42,男,杭州市,住宅-小高层,商业贷款,1202129,88.62,13564.99,三室两厅一卫,西山枫林
王萌,明志路145号,120.157585,30.17451033,42,男,杭州市,住宅-小高层,组合贷款,1161184,88.51,13119.24,三室两厅一卫,西山枫林
王鹏 (1),滨文路136号附近,120.157606,30.17458536,42,男,杭州市,住宅-小高层,商业贷款,1183820,88.51,13374.99,三室两厅一卫,西山枫林
郭雷,博美路与美院北路交叉口南150米,120.0703845,30.15938191,42,男,杭州市,住宅-高层,组合贷款,1206586,88.44,13642.99,三室两厅一卫,西山枫林
张岩,市心南路398号,120.2620373,30.15626482,42,男,杭州市,住宅-高层,商业贷款,1302134,97.29,13384.05,三室两厅一卫,西山枫林
董升,音乐学院10号楼,120.0482127,30.15468049,42,女,杭州市,住宅-小高层,商业贷款,2017632,143.42,14068,四室两厅两卫,西山枫林
温佳,南环路1398号浙江电大萧山学院,120.2769337,30.14595989,42,男,杭州市,住宅-高层,商业贷款,1701736,126.12,13492.99,四室两厅两卫,西山枫林
沈军,闻堰镇湘湖路3388号,120.1775182,30.12625688,42,女,杭州市,住宅-高层,商业贷款,1627440,126.12,12903.9,四室两厅两卫,西山枫林
李金,桂花西路201号,119.935464,30.0488332,42,男,杭州市,住宅-小高层,商业贷款,1474267,114.75,12847.64,三室两厅两卫,西山枫林
李雅,临浦镇前孔社区62号,120.2424845,30.04830069,42,男,杭州市,住宅-小高层,商业贷款,1947364,143.42,13578.05,四室两厅两卫,西山枫林
李健 (1),临浦文化馆3楼(人民路口),120.2425326,30.0475147,42,男,杭州市,住宅-小高层,商业贷款,1199002,88.55,13540.4,三室两厅一卫,西山枫林
王树,分水镇玉华路315号,119.4294888,29.92988545,42,男,杭州市,住宅-小高层,商业贷款,1188246,88.51,13424.99,三室两厅一卫,西山枫林
张翠,凤川街道环城南路66号,119.7427632,29.833626,42,男,杭州市,住宅-高层,商业贷款,1980256,143.31,13817.99,四室两厅两卫,西山枫林
张冠,康乐路348号,119.6697235,29.81408696,42,男,杭州市,住宅-高层,商业贷款,1348108,97.29,13856.59,三室两厅一卫,西山枫林
苏爱,大联路505号,119.6908701,29.79745595,42,男,杭州市,住宅-小高层,商业贷款,2000421,143.42,13947.99,四室两厅两卫,西山枫林
李倩,千岛湖镇开发路435号,119.0492493,29.58668754,42,男,杭州市,住宅-高层,商业贷款,1513428,113.34,13352.99,三室两厅两卫,西山枫林
李非,江滨路与洋安路交叉口西150米,119.2945629,29.49219674,42,男,杭州市,住宅-高层,商业贷款,1975958,143.31,13788,四室两厅两卫,西山枫林
曹国,塘栖镇文苑路20号(娱乐中心南门),120.1869553,30.47596981,42,男,杭州市,住宅-小高层,商业贷款,1983123,143.31,13837.99,四室两厅两卫,西山枫林
赵德,东湖北路477号润达广场五楼,120.2935533,30.46186832,42,男,杭州市,商业-商铺,商业贷款,1199511,88.44,13562.99,三室两厅一卫,西山枫林
李庆,临平东湖南路177号,120.3061252,30.41549004,42,男,杭州市,住宅-小高层,商业贷款,1474622,113.34,13010.61,三室两厅两卫,西山枫林
刘钊,东湖南路177号,120.306334,30.41529871,42,男,杭州市,住宅-小高层,商业贷款,1649197,126.96,12989.89,四室两厅两卫,西山枫林
苏媛,南大街271号君临广场F1层,120.304651,30.40683751,42,男,杭州市,住宅-高层,商业贷款,1997553,143.42,13927.99,四室两厅两卫,西山枫林
谢晓,天都城大酒店娱乐楼一楼,120.2385526,30.39234358,42,女,杭州市,住宅-高层,商业贷款,2016198,143.42,14058,四室两厅两卫,西山枫林
周伟,府新街66号附近,120.1691907,30.3887736,42,男,杭州市,住宅-小高层,商业贷款,1475618,114.08,12934.94,三室两厅两卫,西山枫林
陈永,回龙路与紫荆商街交叉口东北50米,120.1792863,30.34359302,42,男,杭州市,住宅-小高层,一次性,1173013,89.13,13160.7,三室两厅一卫,西山枫林
曹汉,杭州市,120.1792462,30.34363094,42,男,杭州市,住宅-小高层,商业贷款,1532485,114.75,13354.99,三室两厅两卫,西山枫林
李保,华丰路296号龙鼎大酒店负一楼,120.1927392,30.34347845,42,男,杭州市,住宅-高层,商业贷款,2007592,143.42,13997.99,四室两厅两卫,西山枫林
李长,古墩路与金渡北路交叉口铭雅苑(东区)文体中心游泳池,120.0789663,30.34043684,42,男,杭州市,住宅-高层,商业贷款,1920849,143.31,13403.45,四室两厅两卫,西山枫林
王厚,城乐活湾4幢,120.0705273,30.33673145,42,男,杭州市,住宅-小高层,商业贷款,1691576,126.19,13404.99,四室两厅两卫,西山枫林
刘晓,水云街158号碧桂园5幢F1游泳馆,120.3882201,30.33177411,42,男,杭州市,住宅-高层,商业贷款,1338379,97.29,13756.59,三室两厅一卫,西山枫林
杨哲,九福路与九华路交叉口东北角九润公寓,120.2642691,30.32773617,42,男,杭州市,住宅-高层,商业贷款,2010460,143.42,14017.99,四室两厅两卫,西山枫林
范颖,学源街18号浙江财经大学内,120.3858657,30.32344232,42,女,杭州市,住宅-高层,商业贷款,1204997,88.91,13553,三室两厅一卫,西山枫林
王惠,九堡镇九环路与九昌路交叉口万科魅力之城,120.2525426,30.32263869,42,男,杭州市,住宅-小高层,商业贷款,1198626,88.44,13552.99,三室两厅一卫,西山枫林
周敬,严家桥街28号附近,120.1256433,30.31823911,42,女,杭州市,住宅-小高层,商业贷款,1687863,126.12,13382.99,四室两厅两卫,西山枫林
郭勇,登云路顺发·吉祥半岛9幢北侧,120.1232882,30.31713546,42,男,杭州市,住宅-小高层,商业贷款,1209356,88.63,13645,三室两厅一卫,西山枫林
周冲,小河路188号凯德视界4号楼,120.130528,30.31568177,42,女,杭州市,住宅-小高层,商业贷款,1967358,143.31,13727.99,四室两厅两卫,西山枫林
杨红,2号大街928号浙江理工大学,120.3525227,30.31521201,42,男,杭州市,住宅-小高层,商业贷款,1974524,143.31,13777.99,四室两厅两卫,西山枫林
赵佰,小河路188号,120.1313,30.31491593,42,女,杭州市,住宅-小高层,商业贷款,1540401,115.36,13352.99,三室两厅两卫,西山枫林
代超,丽水路锦昌文华苑,120.1374006,30.31289112,42,男,杭州市,住宅-小高层,商业贷款,1696691,126.12,13452.99,四室两厅两卫,西山枫林
徐亚,白石巷125号,120.1584831,30.31271644,42,男,杭州市,住宅-高层,商业贷款,1197106,89.17,13424.99,三室两厅一卫,西山枫林
杨素,白石巷125号附近,120.1585744,30.31257862,42,男,杭州市,住宅-小高层,商业贷款,1337651,97.29,13749.11,三室两厅一卫,西山枫林
喻诗,余杭塘路866号浙江大学紫金港校区,120.0847635,30.31004093,42,女,杭州市,住宅-小高层,商业贷款,1522397,114.08,13344.99,三室两厅两卫,西山枫林
石贯,赵伍路57号24-1701附近,120.1248212,30.30954121,42,女,杭州市,住宅-小高层,商业贷款,1198346,88.55,13532.99,三室两厅一卫,西山枫林
孙甜,大关小区东四苑18号(近行知中学),120.1520896,30.30969915,42,男,杭州市,住宅-小高层,商业贷款,1204997,88.91,13553,三室两厅一卫,西山枫林
李森,金沙大道560号龙湖天街8层威尔士健身内,120.3231294,30.31216356,42,男,杭州市,住宅-小高层,商业贷款,1143836,88.91,12865.1,三室两厅一卫,西山枫林
路婷,九堡中心区北至九乔路,120.2822299,30.3069447,42,男,杭州市,住宅-小高层,商业贷款,1682818,126.12,13342.99,四室两厅两卫,西山枫林
高洁,德胜路6号(东新路口),120.1706742,30.30426629,42,男,杭州市,住宅-小高层,商业贷款,1484830,113.34,13100.67,三室两厅两卫,西山枫林
张健,河庄镇河庄路1168号至高·钱塘一品4层,120.452296,30.30481529,42,男,杭州市,商业-商铺,商业贷款,1711785,126.94,13484.99,四室两厅两卫,西山枫林
赵鑫,古墩路与萍水西街交叉口(耀江文鼎苑27栋游泳池会所),120.0908088,30.30148343,42,男,杭州市,住宅-高层,商业贷款,1693011,126.96,13335,四室两厅两卫,西山枫林
张晓 (1),古墩路与萍水西街交叉口同人广场b座4楼,120.094644,30.3014993,42,男,杭州市,住宅-小高层,商业贷款,1963060,143.31,13698,四室两厅两卫,西山枫林
李敏,丰潭路萍水路交叉口丰元大厦A座3楼,120.1013491,30.30381934,42,男,杭州市,住宅-小高层,商业贷款,1333925,97.31,13708,三室两厅一卫,西山枫林
李英,丰潭路207号政苑小区内,120.0985932,30.29940708,42,男,杭州市,住宅-高层,商业贷款,1297683,97.31,13335.56,三室两厅一卫,西山枫林
神克,五常港路与双龙街交叉口西南150米,120.0525993,30.29468315,42,女,杭州市,住宅-高层,商业贷款,1208553,88.91,13592.99,三室两厅一卫,西山枫林
刘干,文一西路532-1号,120.0801354,30.29433803,42,女,杭州市,住宅-高层,组合贷款,1344352,97.29,13817.99,三室两厅一卫,西山枫林
吴林,文一西路532-1号,120.0808697,30.29339771,42,女,杭州市,住宅-高层,组合贷款,1344352,97.29,13817.99,三室两厅一卫,西山枫林
梁颖,文一西路122号南都花园内,120.0987339,30.29394473,42,女,杭州市,住宅-小高层,商业贷款,1975874,143.42,13776.84,四室两厅两卫,西山枫林
刘博,双荡弄120号杭州市拱墅区体育馆2层,120.1405385,30.2935773,42,男,杭州市,住宅-小高层,商业贷款,1325130,97.29,13620.41,三室两厅一卫,西山枫林
陈爱,长板巷99号昆仑公馆内,120.1529875,30.29403458,42,女,杭州市,住宅-小高层,商业贷款,1997553,143.42,13927.99,四室两厅两卫,西山枫林
祝长,潮王路18号,120.1582971,30.29404128,42,男,杭州市,住宅-小高层,商业贷款,1700629,126.96,13395,四室两厅两卫,西山枫林
杨洋,文一西路176号,120.0967179,30.2907277,42,女,杭州市,住宅-小高层,商业贷款,1321274,97.31,13577.99,三室两厅一卫,西山枫林
王占,星洲街与紫荆花路交叉口东南200米,120.0893657,30.2902069,42,女,杭州市,住宅-小高层,商业贷款,1538094,115.36,13332.99,三室两厅两卫,西山枫林
路梓,文一西路122号,120.0995521,30.29020833,42,女,杭州市,住宅-高层,商业贷款,1179349,88.55,13318.45,三室两厅一卫,西山枫林
庄妮,文一西路149号,120.1005505,30.28758089,42,女,杭州市,住宅-小高层,商业贷款,1996855,143.42,13923.13,四室两厅两卫,西山枫林
陈庆 (1),强身路西湖体育场1层,120.0825688,30.28563264,42,男,杭州市,商业-商铺,组合贷款,1338515,97.29,13757.99,三室两厅一卫,西山枫林
张成,文二西路299号南都德加小区(东区),120.1013056,30.28571133,42,女,杭州市,住宅-小高层,商业贷款,1335871,97.31,13727.99,三室两厅一卫,西山枫林
陈明,西城广场,120.0904261,30.2828295,42,女,杭州市,住宅-小高层,商业贷款,1696691,126.12,13452.99,四室两厅两卫,西山枫林
刘国,文三西路360号香樟公寓46幢,120.102079,30.28118906,42,女,杭州市,住宅-高层,商业贷款,1211457,89.02,13608.82,三室两厅一卫,西山枫林
王睿,益乐路与丰潭路交叉口(原雪峰纪念馆后面),120.1104705,30.27997569,42,女,杭州市,住宅-小高层,商业贷款,1701671,126.19,13484.99,四室两厅两卫,西山枫林
赵勇,教工路49号,120.1309379,30.28093726,42,男,杭州市,住宅-高层,商业贷款,1681881,126.22,13325,四室两厅两卫,西山枫林
房敬,教工路19号,120.1304197,30.2804816,42,男,杭州市,住宅-高层,商业贷款,1325166,97.31,13617.98,三室两厅一卫,西山枫林
王坤,绿洲花园18幢1层(距离西湖文化广场站约490米),120.1661836,30.28167631,42,男,杭州市,住宅-小高层,商业贷款,1515695,113.34,13372.99,三室两厅两卫,西山枫林
李凌,创意设计中心A104号,120.1999592,30.28105348,42,男,杭州市,商业-公寓,商业贷款,1513537,114.08,13267.33,三室两厅两卫,西山枫林
宋永,文三西路658号,120.0884432,30.2783743,42,女,杭州市,住宅-高层,商业贷款,1637546,126.22,12973.74,四室两厅两卫,西山枫林
李金 (1),文三西路471号,120.088037,30.27746548,42,女,杭州市,住宅-高层,商业贷款,1208553,88.91,13592.99,三室两厅一卫,西山枫林
李阳,文三西路333号,120.093514,30.2777958,42,女,杭州市,住宅-高层,商业贷款,1513428,113.34,13352.99,三室两厅两卫,西山枫林
王霞 (1),文三西路251号(月桂花园),120.0979884,30.27775625,42,女,杭州市,住宅-小高层,组合贷款,1193033,88.55,13472.99,三室两厅一卫,西山枫林
李凯,文三西路111号,120.1018631,30.27720237,42,女,杭州市,住宅-小高层,商业贷款,1674972,126.94,13194.99,四室两厅两卫,西山枫林
张雷,余杭镇通济路57号,119.9310844,30.27674737,42,女,杭州市,住宅-小高层,商业贷款,1344352,97.29,13817.99,三室两厅一卫,西山枫林
韩玉,古墩路99号浙商财富中心1号楼B2层,120.0958714,30.27508219,42,男,杭州市,住宅-高层,商业贷款,1345325,97.29,13827.99,三室两厅一卫,西山枫林
贾海,古墩路82号附近,120.0959645,30.27531917,42,男,杭州市,住宅-小高层,商业贷款,1296472,97.29,13325.85,三室两厅一卫,西山枫林
刁淑,教工路28号奥克伍德公寓3层,120.1319659,30.27532624,42,男,杭州市,住宅-高层,一次性,1954580,143.31,13638.82,四室两厅两卫,西山枫林
姜伟,环城北路181号,120.1623949,30.27539482,42,男,杭州市,住宅-小高层,商业贷款,1974524,143.31,13777.99,四室两厅两卫,西山枫林
蔡奇,体育场路218号杭州新闻大厦5层,120.1655644,30.27381391,42,女,杭州市,住宅-小高层,商业贷款,1947327,143.31,13588.21,四室两厅两卫,西山枫林
原永,中山北路572号,120.1621712,30.2753654,42,女,杭州市,住宅-小高层,商业贷款,1721940,126.94,13564.99,四室两厅两卫,西山枫林
潘广,艮山西路401附近,120.184104,30.27482806,42,男,杭州市,住宅-高层,商业贷款,1719402,126.94,13545,四室两厅两卫,西山枫林
时昊,三新路347号,120.2077583,30.27479391,42,男,杭州市,住宅-小高层,商业贷款,1993250,143.42,13897.99,四室两厅两卫,西山枫林
宋延,天目山路396号,120.1046863,30.27208504,42,女,杭州市,住宅-小高层,商业贷款,1655447,126.86,13049.4,四室两厅两卫,西山枫林
何苗 (1),黄龙路5号黄龙恒励大厦,120.1304526,30.27143351,42,男,杭州市,住宅-高层,商业贷款,1511162,113.34,13333,三室两厅两卫,西山枫林
许宗,西溪路与黄姑山路交叉口东150米,120.1301177,30.27229298,42,女,杭州市,住宅-高层,商业贷款,1201888,88.55,13572.99,三室两厅一卫,西山枫林
牟黎,紫金港路21号悦榕庄,120.0823051,30.26961133,42,女,杭州市,住宅-高层,商业贷款,1673989,126.12,13272.99,四室两厅两卫,西山枫林
马彦,聚龙巷与跑马场路交叉口南150米,120.1340095,30.26931373,42,男,杭州市,住宅-高层,商业贷款,1154891,88.62,13031.95,三室两厅一卫,西山枫林
朱春,凯旋路268号浙江大学华家池校区内(近华池北路),120.1933589,30.2708202,42,男,杭州市,住宅-高层,商业贷款,1497380,113.43,13200.92,三室两厅两卫,西山枫林
李航,浙大路38号浙江大学玉泉校区,120.1214536,30.26575694,42,女,杭州市,住宅-小高层,商业贷款,1182936,88.51,13365,三室两厅一卫,西山枫林
周洋,玉古路20号,120.1226379,30.26820304,42,女,杭州市,住宅-高层,商业贷款,1519287,115.36,13169.96,三室两厅两卫,西山枫林
陈昊,曙光路126号(近黄龙体育中心),120.1333651,30.26757295,42,男,杭州市,住宅-高层,商业贷款,1192549,88.91,13412.99,三室两厅一卫,西山枫林
马颖,建国北路游泳巷78号(凤起路加油站对面),120.1784454,30.26534873,42,男,杭州市,住宅-小高层,商业贷款,1695430,126.12,13442.99,四室两厅两卫,西山枫林
陈睿,四季青街道新塘路58号杭州新传媒产业大厦3楼,120.2042802,30.26319634,42,男,杭州市,住宅-高层,商业贷款,1174783,89.02,13196.84,三室两厅一卫,醉墨小镇
冯倩,钱潮路12号江干区全民健身活动中心3层,120.2183999,30.25776245,42,男,杭州市,住宅-小高层,商业贷款,1316408,97.31,13527.98,三室两厅一卫,醉墨小镇
孔祥,北山路78号香格里拉饭店健身房内,120.1341731,30.25582714,42,男,杭州市,住宅-小高层,商业贷款,1543862,115.36,13382.99,三室两厅两卫,醉墨小镇
周洪,岳王路1号东方金座4层东侧,120.164885,30.25544726,42,女,杭州市,住宅-小高层,商业贷款,1531849,115.36,13278.86,三室两厅两卫,醉墨小镇
刘振,庆和路21号,120.2123679,30.25712311,42,男,杭州市,住宅-小高层,商业贷款,1192549,88.91,13412.99,三室两厅一卫,醉墨小镇
马园,钱潮路20号,120.2196763,30.25696172,42,男,杭州市,住宅-高层,商业贷款,1493189,114.75,13012.54,三室两厅两卫,醉墨小镇
刘辉,钱潮路2-6号天元大厦裙楼1层,120.2195691,30.25693762,42,男,杭州市,住宅-小高层,商业贷款,1686602,126.12,13372.99,四室两厅两卫,醉墨小镇
姜振,高教园区顺坝路浙江体育职业技术学院内,120.2899141,30.25657308,42,男,杭州市,住宅-高层,商业贷款,1198626,88.44,13552.99,三室两厅一卫,醉墨小镇
李敦,上仓路东50米,119.9668183,30.25299413,42,男,杭州市,住宅-小高层,商业贷款,1203933,88.44,13612.99,三室两厅一卫,醉墨小镇
吴易,民心路88号东方君悦裙楼三楼(近万象城),120.215718,30.25382407,42,男,杭州市,住宅-小高层,商业贷款,1716863,126.94,13525,四室两厅两卫,醉墨小镇
陈国,民心路88号东方君悦裙楼3层,120.2163363,30.25322976,42,男,杭州市,住宅-高层,商业贷款,1694099,126.19,13424.99,四室两厅两卫,醉墨小镇
刘德,市民中心K座杭州市青少年发展中心B1层,120.2055101,30.25060006,42,男,杭州市,住宅-高层,商业贷款,1695550,126.96,13354.99,四室两厅两卫,醉墨小镇
李书,市民中心K座B1层(青少年发展中心),120.2055191,30.25060607,42,男,杭州市,住宅-小高层,商业贷款,1354081,97.29,13917.99,三室两厅一卫,醉墨小镇
杨建,延安路98号乐天银泰百货西湖店,120.1607714,30.24639227,42,女,杭州市,住宅-高层,商业贷款,1532325,115.36,13282.98,三室两厅两卫,醉墨小镇
曹奇,延安路98号4层,120.1601616,30.24631914,42,女,杭州市,住宅-小高层,商业贷款,1210331,88.91,13612.99,三室两厅一卫,醉墨小镇
王希,苕溪北路41号,119.7128485,30.24200345,42,女,杭州市,住宅-高层,商业贷款,1198720,88.63,13524.99,三室两厅一卫,醉墨小镇
李青 (1),保亿中心民和路830号旁,120.241615,30.24184969,42,男,杭州市,住宅-小高层,商业贷款,1944582,143.42,13558.65,四室两厅两卫,醉墨小镇
王昊,衣锦街319号,119.7228648,30.2371728,42,女,杭州市,住宅-高层,商业贷款,1357000,97.29,13947.99,三室两厅一卫,醉墨小镇
李斌,闲林上水木兰苑10-11号,120.0093979,30.2354894,42,女,杭州市,住宅-高层,商业贷款,1328085,97.31,13647.98,三室两厅一卫,醉墨小镇
孟宪,闲林山水梅兰苑商铺2-2,120.0134637,30.23608542,42,女,杭州市,住宅-小高层,商业贷款,1334898,97.31,13717.99,三室两厅一卫,醉墨小镇
李泽,闲林街道良睦路378号,120.0029863,30.23468365,42,女,杭州市,住宅-高层,商业贷款,1679034,126.12,13312.99,四室两厅两卫,醉墨小镇
王慧,南山路37号浙江西子宾馆,120.146882,30.23429209,42,男,杭州市,住宅-小高层,商业贷款,1973062,143.42,13757.23,四室两厅两卫,醉墨小镇
周磊,紫阳街道江城路402号,120.1696299,30.23391679,42,女,杭州市,住宅-小高层,商业贷款,1198626,88.44,13552.99,三室两厅一卫,醉墨小镇
朱丹,婺江路217号天阳亲子广场3楼(地铁4号线近江站、杭州市妇女保健医院、万泰城),120.1924355,30.2331457,42,女,杭州市,住宅-高层,商业贷款,1189492,88.55,13433,三室两厅一卫,醉墨小镇
王晶,钱江路397号(望江府底商),120.1850112,30.23124518,42,男,杭州市,住宅-小高层,商业贷款,1942996,143.31,13557.99,四室两厅两卫,醉墨小镇
马雪,之江路888号4层,120.1960152,30.23043663,42,女,杭州市,住宅-高层,商业贷款,1299571,97.31,13354.96,三室两厅一卫,醉墨小镇
周长,锦南街道畔湖路888号,119.716601,30.22412253,42,男,杭州市,住宅-小高层,商业贷款,1702841,126.86,13422.99,四室两厅两卫,醉墨小镇
程泮,文卫路19号,119.981408,30.22316466,42,女,杭州市,住宅-小高层,商业贷款,1202774,88.55,13582.99,三室两厅一卫,醉墨小镇
温家,紫阳街道钱江路158号,120.1759859,30.22032453,42,女,杭州市,住宅-小高层,商业贷款,1162230,88.55,13125.13,三室两厅一卫,醉墨小镇
温莹,海运国际大厦负一楼,120.171852,30.21657305,42,男,杭州市,住宅-小高层,商业贷款,1679356,126.22,13304.99,四室两厅两卫,醉墨小镇
马敬,海运国际大厦B座,120.1723023,30.2165129,42,男,杭州市,住宅-小高层,商业贷款,1504361,113.34,13272.99,三室两厅两卫,醉墨小镇
高琦,江陵路2028号星耀城1栋3层,120.2097997,30.21593494,42,男,杭州市,住宅-小高层,商业贷款,2016198,143.42,14058,四室两厅两卫,醉墨小镇
赵振,香溢路88号白金海岸小区9幢(近长河路),120.183861,30.20507069,42,女,杭州市,住宅-小高层,公积金贷款,1963060,143.31,13698,四室两厅两卫,醉墨小镇
石洋,滨和路998号中赢国际B座4楼,120.2065325,30.20239151,42,男,杭州市,住宅-小高层,商业贷款,1181056,89.17,13244.99,三室两厅一卫,醉墨小镇
温丹,九州街599号,119.6910626,30.20110251,42,男,杭州市,住宅-小高层,商业贷款,1317573,113.43,11615.74,三室两厅两卫,醉墨小镇
王平,江南大道1076号中南国际大厦旁,120.1869051,30.19982129,42,男,杭州市,住宅-小高层,商业贷款,1203933,88.44,13612.99,三室两厅一卫,醉墨小镇
于小,江南大道1094号,120.1889617,30.20170673,42,男,杭州市,住宅-高层,商业贷款,1694169,126.12,13432.99,四室两厅两卫,醉墨小镇
孟宪 (1),江南大道与滨怡路交叉口北100米,120.1873885,30.19956814,42,男,杭州市,住宅-小高层,商业贷款,1504361,113.34,13272.99,三室两厅两卫,醉墨小镇
侯艳,春晓路与江汉路交叉口北150米,120.2098652,30.19989287,42,男,杭州市,住宅-小高层,组合贷款,1350190,97.29,13877.99,三室两厅一卫,醉墨小镇
王炜,春晓路与滨和路交叉口东方郡小区东区内,120.2110978,30.20042034,42,男,杭州市,住宅-小高层,商业贷款,1932964,143.31,13487.99,四室两厅两卫,醉墨小镇
郑滨,江南大道1090号全季酒店5层,120.1885589,30.19781823,42,男,杭州市,住宅-小高层,商业贷款,1197883,88.91,13472.98,三室两厅一卫,醉墨小镇
佘敏,江南大道与长河路交汇处中南商城二期全季酒店5F(滨河路与长河路交汇处中信银行),120.1875852,30.19755758,42,男,杭州市,商业-商铺,商业贷款,1699214,126.12,13472.99,四室两厅两卫,醉墨小镇
郑岩,滨江江南大道1090号(欧亚达家具城),120.1883273,30.19706787,42,男,杭州市,住宅-小高层,商业贷款,1644141,126.19,13029.09,四室两厅两卫,醉墨小镇
王连,伟业路730号太阳国际公寓会所1层,120.1554862,30.19420166,42,女,杭州市,住宅-高层,商业贷款,1462810,113.43,12896.15,三室两厅两卫,醉墨小镇
杨梦,网商路与滨和路交汇处,120.1875302,30.19552058,42,女,杭州市,住宅-高层,组合贷款,1182633,88.62,13344.99,三室两厅一卫,醉墨小镇
徐明,浦沿镇东信大道1222号,120.1477061,30.189361,42,男,杭州市,住宅-小高层,组合贷款,1936235,143.42,13500.45,四室两厅两卫,醉墨小镇
吕清,火炬大道宝龙城市广场3层,120.1632936,30.19035731,42,男,杭州市,住宅-小高层,商业贷款,1269365,97.31,13044.55,三室两厅一卫,醉墨小镇
豆南,江南大道与信诚路交叉口智汇领地DicA座3楼,120.1702735,30.18949946,42,男,杭州市,住宅-小高层,商业贷款,1700453,126.86,13404.17,四室两厅两卫,醉墨小镇
吴春,五云东路20号,120.1119218,30.18752914,42,女,杭州市,住宅-小高层,商业贷款,1193320,88.44,13492.99,三室两厅一卫,醉墨小镇
张臣,金惠路993号国泰花园会所1层(近加州阳光),120.2513172,30.18711835,42,男,杭州市,住宅-小高层,商业贷款,1507761,113.34,13302.99,三室两厅两卫,醉墨小镇
王净,永久路银河小区内,120.2662515,30.18619078,42,女,杭州市,住宅-小高层,商业贷款,1691647,126.12,13413,四室两厅两卫,醉墨小镇
张容,滨康路长河路交叉口,120.1902808,30.18344379,42,男,杭州市,商业-公寓,商业贷款,1520229,113.34,13413,三室两厅两卫,醉墨小镇
李华,金城路184号汇金星座标B幢1楼龙格亲子游泳,120.2416367,30.18413395,42,男,杭州市,住宅-高层,商业贷款,1204788,88.62,13594.99,三室两厅一卫,醉墨小镇
张新,六和路西50米,120.1353364,30.18056734,42,男,杭州市,住宅-高层,商业贷款,2020500,143.42,14087.99,四室两厅两卫,醉墨小镇
仇晓,瓜沥镇航民路,120.4484044,30.18167508,42,男,杭州市,商业-商铺,商业贷款,1353108,97.29,13907.99,三室两厅一卫,醉墨小镇
金萌,瓜沥镇,120.4477184,30.1822506,42,男,杭州市,商业-商铺,商业贷款,1954493,143.31,13638.22,四室两厅两卫,醉墨小镇
李玉,西浦路1577号,120.1298589,30.17913962,42,女,杭州市,商业-商铺,商业贷款,1331979,97.31,13688,三室两厅一卫,醉墨小镇
杨刚,通惠中路210号金马饭店B座4层,120.2827295,30.17241502,42,女,杭州市,住宅-小高层,一次性,1957417,143.31,13658.62,四室两厅两卫,醉墨小镇
刘震,衙前镇凤凰路凤凰花园附近,120.4032624,30.17109505,42,女,杭州市,住宅-小高层,商业贷款,1323476,97.31,13600.62,三室两厅一卫,醉墨小镇
朱瑶,白马湖小区鸿雁苑,120.1976516,30.16772325,42,男,杭州市,住宅-小高层,商业贷款,1691647,126.12,13413,四室两厅两卫,醉墨小镇
吴文,规划支路38号,120.1972495,30.16907958,42,男,杭州市,商业-商铺,商业贷款,1478293,113.34,13042.99,三室两厅两卫,醉墨小镇
陈进,长江南路336号,120.1990244,30.16397146,42,女,杭州市,住宅-高层,商业贷款,1483364,114.08,13002.84,三室两厅两卫,醉墨小镇
周雅,市心南路398号,120.2613571,30.15778319,42,男,杭州市,住宅-高层,商业贷款,1302134,97.29,13384.05,三室两厅一卫,醉墨小镇
张安,高桥路(南江公园旁),120.2651705,30.15101782,42,男,杭州市,住宅-小高层,商业贷款,1345325,97.29,13827.99,三室两厅一卫,醉墨小镇
张昭,受降镇九龙大道227号绿城七里香溪游泳馆,119.9873003,30.14805624,42,男,杭州市,住宅-小高层,商业贷款,1707916,126.86,13463,四室两厅两卫,醉墨小镇
张腾,蜀山街道得力半岛花园28幢,120.2475467,30.14192645,42,男,杭州市,住宅-小高层,商业贷款,1684614,126.94,13270.95,四室两厅两卫,醉墨小镇
李晴 (1),闻堰镇万达北路710号郁金香岸北门,120.1530014,30.14065898,42,女,杭州市,住宅-小高层,商业贷款,1684005,126.19,13345,四室两厅两卫,醉墨小镇
杨钧,晨晖路与西河路交叉路口往南300米,120.2611719,30.13631087,42,男,杭州市,商业-商铺,商业贷款,1284447,97.13,13224,三室两厅一卫,醉墨小镇
刘佳,万达中路隐龙湾4幢4层,120.1702061,30.13179915,42,女,杭州市,住宅-高层,商业贷款,1846281,143.16,12896.63,四室两厅两卫,醉墨小镇
李娜,富春街道兴达路35号,119.9387331,30.06445936,42,男,杭州市,住宅-高层,商业贷款,1190666,88.44,13462.98,三室两厅一卫,醉墨小镇
高原,西郊半岛,119.9702161,30.0540415,42,女,杭州市,住宅-高层,商业贷款,1194204,88.44,13502.99,三室两厅一卫,醉墨小镇
李鹏,金桥北路61号开元名都大酒店B1楼,119.9285739,30.05213679,42,男,杭州市,住宅-高层,商业贷款,1191857,88.44,13476.45,三室两厅一卫,醉墨小镇
杜兴,富阳镇桂花西路231号,119.9357727,30.04966767,42,男,杭州市,住宅-高层,商业贷款,1524516,115.45,13204.99,三室两厅两卫,醉墨小镇
宫亦,富春街道馆驿路1号,119.9604308,30.04857569,42,男,杭州市,商业-商铺,商业贷款,1637227,126.12,12981.5,四室两厅两卫,醉墨小镇
翟春,东藩路,120.2426055,30.04997769,42,男,杭州市,住宅-高层,商业贷款,1201888,88.55,13572.99,三室两厅一卫,醉墨小镇
江梦,环山乡诸佳坞村,119.9346495,29.95510171,42,男,杭州市,住宅-高层,商业贷款,1173919,89.02,13187.14,三室两厅一卫,醉墨小镇
朱志,玉华初中,119.4316196,29.92470276,42,女,杭州市,住宅-高层,商业贷款,1198352,89.13,13444.99,三室两厅一卫,醉墨小镇
常福,桐君街道大联路505号,119.6907183,29.7966173,42,女,杭州市,住宅-高层,商业贷款,1918069,143.31,13384.06,四室两厅两卫,醉墨小镇
孙晓,千岛湖风景区千岛湖镇阳光路59号秀水广场(爱贝生活馆),119.037621,29.61518506,42,男,杭州市,住宅-高层,组合贷款,1161810,88.44,13136.7,三室两厅一卫,醉墨小镇
毕艳,塘栖镇乾隆御碑公园西南角,120.1808723,30.48286011,42,男,杭州市,住宅-高层,商业贷款,1725748,126.94,13594.99,四室两厅两卫,醉墨小镇
胡印,广和街12号附近,120.3014754,30.41690594,42,男,杭州市,住宅-高层,商业贷款,1704168,126.94,13424.99,四室两厅两卫,醉墨小镇
张培,S304(迎宾路),120.298212,30.38748047,42,男,杭州市,住宅-高层,组合贷款,1172215,88.63,13225.94,三室两厅一卫,醉墨小镇
张玉,勾庄农副产品物流园区浙江食品市场会展中心三楼,120.107212,30.37734417,42,男,杭州市,住宅-高层,商业贷款,1303758,97.31,13397.99,三室两厅一卫,醉墨小镇
王亚,良渚文化村玉鸟流苏1号,120.0230628,30.37008046,42,男,杭州市,住宅-高层,商业贷款,1958760,143.31,13667.99,四室两厅两卫,醉墨小镇
刘娅,永和坊7幢1层,120.1415302,30.32900654,42,女,杭州市,住宅-高层,商业贷款,1521943,115.36,13192.99,三室两厅两卫,醉墨小镇
张洪,丁兰路8号,120.2167442,30.32489756,42,男,杭州市,商业-商铺,组合贷款,1705520,126.12,13522.99,四室两厅两卫,醉墨小镇
崔朝,小河路450号,120.1332984,30.32127394,42,女,杭州市,住宅-高层,商业贷款,1186245,88.44,13412.99,三室两厅一卫,醉墨小镇
李思,笕桥镇机场路250号3幢2层,120.2179949,30.3211873,42,男,杭州市,商业-公寓,商业贷款,1942920,143.42,13547.06,四室两厅两卫,醉墨小镇
李思 (1),白杨街道杭州职业技术学院友嘉机电学院,120.3526141,30.32178002,42,男,杭州市,商业-公寓,商业贷款,1692907,126.12,13422.99,四室两厅两卫,醉墨小镇
谢继,小河路336号,120.1329237,30.31850476,42,女,杭州市,住宅-小高层,商业贷款,1162396,88.55,13127,三室两厅一卫,醉墨小镇
李思 (2),小河路334,120.1321809,30.31794578,42,女,杭州市,商业-公寓,商业贷款,1626217,126.12,12894.2,四室两厅两卫,醉墨小镇
张志,金华路34号运河文化广场1号,120.1369528,30.31990554,42,男,杭州市,住宅-小高层,商业贷款,1322247,97.31,13587.99,三室两厅一卫,醉墨小镇
黄彦,杭海路1191号,120.2617945,30.31186489,42,男,杭州市,商业-商铺,商业贷款,1206775,88.91,13573,三室两厅一卫,醉墨小镇
郝玲,三墩镇杨家桥社区委员会附近,120.0678555,30.30004109,42,男,杭州市,住宅-小高层,商业贷款,1697952,126.12,13462.99,四室两厅两卫,醉墨小镇
李伟,霞湾巷65号,120.1449181,30.29881294,42,女,杭州市,商业-公寓,组合贷款,1195926,88.62,13494.99,三室两厅一卫,醉墨小镇
孙悦,德胜快速路与蝶飞巷交叉口南150米,120.1676123,30.3011839,42,男,杭州市,住宅-小高层,商业贷款,1511454,113.43,13324.99,三室两厅两卫,醉墨小镇
李思 (3),下沙幸福南路2号,120.3258417,30.29439444,42,女,杭州市,商业-公寓,商业贷款,1341434,97.29,13787.99,三室两厅一卫,醉墨小镇
高爱,天城路68号万事利科技大厦B座2楼,120.1984355,30.29044222,42,女,杭州市,住宅-小高层,商业贷款,1356027,97.29,13937.99,三室两厅一卫,醉墨小镇
李洪,明月桥路32-3号附近,120.2246692,30.29199257,42,男,杭州市,住宅-小高层,商业贷款,1195689,88.55,13502.98,三室两厅一卫,醉墨小镇
李思 (4),文一西路532号杭州绿城育华小学,120.0821783,30.2897454,42,女,杭州市,商业-公寓,商业贷款,1516828,113.34,13382.99,三室两厅两卫,醉墨小镇
刘玉 (1),教工路149号,120.1288173,30.2878157,42,男,杭州市,住宅-高层,商业贷款,1292019,97.31,13277.35,三室两厅一卫,醉墨小镇
耿天,莫干山路142号中策职业学校内,120.1450376,30.28503563,42,男,杭州市,住宅-高层,商业贷款,1918069,143.31,13384.06,四室两厅两卫,醉墨小镇
吴岳,西湖文化广场29,120.1574618,30.27983222,42,女,杭州市,住宅-高层,商业贷款,1704110,126.86,13433,四室两厅两卫,醉墨小镇
李思 (5),西湖文化广场6号,120.1600485,30.27934905,42,女,杭州市,商业-公寓,商业贷款,1188116,88.55,13417.46,三室两厅一卫,醉墨小镇
谢娜,彭埠镇五堡二区159号,120.2344802,30.28023547,42,男,杭州市,住宅-高层,一次性,1699547,126.94,13388.59,四室两厅两卫,醉墨小镇
闫学,古荡小学南路与益乐路交叉口西南50米,120.1115026,30.27594383,42,男,杭州市,住宅-高层,商业贷款,1164995,89.13,13070.74,三室两厅一卫,醉墨小镇
李思 (6),体育场路200号,120.1682265,30.272982,42,男,杭州市,住宅-小高层,商业贷款,1205430,88.55,13612.99,三室两厅一卫,醉墨小镇
李思 (7),访溪路附近,120.0427072,30.26926927,42,男,杭州市,商业-公寓,商业贷款,1190901,88.51,13454.99,三室两厅一卫,醉墨小镇
李思 (8),顺坝村402号神博乐园,120.2953832,30.26867653,42,男,杭州市,商业-公寓,商业贷款,1199470,88.62,13534.98,三室两厅一卫,醉墨小镇
李思 (9),杭州市,120.3138292,30.26868793,42,男,杭州市,住宅-小高层,商业贷款,1532485,114.75,13354.99,三室两厅两卫,醉墨小镇
李思 (10),天目山路402号,120.0823474,30.26635061,42,女,杭州市,商业-公寓,商业贷款,1200551,88.91,13502.99,三室两厅一卫,醉墨小镇
李思 (11),浙大路38号浙江大学玉泉校区,120.1163484,30.26446191,42,女,杭州市,住宅-小高层,商业贷款,1182936,88.51,13365,三室两厅一卫,醉墨小镇
李思 (12),凤起路519号,120.1552004,30.26481147,42,男,杭州市,商业-公寓,商业贷款,1526173,115.36,13229.65,三室两厅两卫,醉墨小镇
李思 (13),回龙庙前50号,120.1794824,30.26519864,42,男,杭州市,商业-公寓,商业贷款,1209442,88.91,13602.99,三室两厅一卫,醉墨小镇
李思 (14),水博大道1号,120.3078296,30.26144669,42,男,杭州市,商业-公寓,商业贷款,1507761,113.34,13302.99,三室两厅两卫,醉墨小镇
李思 (15),北山路41-42号,120.1409676,30.25975327,42,男,杭州市,商业-公寓,商业贷款,1498694,113.34,13222.99,三室两厅两卫,醉墨小镇
刘磊,长生路58号西湖国贸中心622室,120.1555649,30.25958259,42,女,杭州市,商业-公寓,商业贷款,1685667,126.22,13354.99,四室两厅两卫,醉墨小镇
刘磊 (1),钱潮路2号天元大厦1层,120.2197074,30.25708474,42,男,杭州市,商业-公寓,商业贷款,2017632,143.42,14068,四室两厅两卫,醉墨小镇
刘磊 (2),孤山后山路10号,120.134841,30.2536143,42,男,杭州市,商业-公寓,商业贷款,1193919,88.55,13482.99,三室两厅一卫,醉墨小镇
刘磊 (3),孤山路25号,120.1387732,30.25356729,42,男,杭州市,商业-公寓,商业贷款,1191551,88.44,13472.99,三室两厅一卫,醉墨小镇
刘磊 (4),延安路238号,120.1597749,30.25354286,42,女,杭州市,商业-公寓,商业贷款,1206915,89.17,13534.99,三室两厅一卫,醉墨小镇
刘磊 (5),平山路209-213,119.7081973,30.24660882,42,男,杭州市,商业-公寓,商业贷款,1316408,97.31,13527.98,三室两厅一卫,醉墨小镇
王晓,南山路89号,120.1532334,30.24442057,42,男,杭州市,住宅-高层,商业贷款,1320301,97.31,13567.99,三室两厅一卫,醉墨小镇
康甜,南山路101-1号2层,120.1537056,30.24576732,42,男,杭州市,住宅-高层,商业贷款,1163618,88.63,13128.94,三室两厅一卫,醉墨小镇
刘磊 (6),劳动路18,120.1579723,30.24400226,42,男,杭州市,商业-公寓,商业贷款,1636063,126.96,12886.44,四室两厅两卫,醉墨小镇
刘磊 (7),清波街道粮道山18号,120.1613546,30.24118675,42,男,杭州市,商业-公寓,商业贷款,1893047,143.31,13209.46,四室两厅两卫,醉墨小镇
刘磊 (8),大井巷95-101号,120.1644658,30.2421645,42,男,杭州市,商业-公寓,商业贷款,1655071,126.12,13122.99,四室两厅两卫,醉墨小镇
刘磊 (9),后市街12号,120.164558,30.24280363,42,男,杭州市,商业-公寓,商业贷款,1188898,88.44,13442.99,三室两厅一卫,醉墨小镇
刘磊 (10),河坊街(西湖边)207-221号,120.1624819,30.24227877,42,男,杭州市,商业-公寓,商业贷款,1714324,126.94,13504.99,四室两厅两卫,醉墨小镇
刘磊 (11),黄金水岸88号,119.7141689,30.24039807,42,男,杭州市,商业-公寓,公积金贷款,1533752,115.45,13284.99,三室两厅两卫,醉墨小镇
刘磊 (12),黄金水岸87号,119.713984,30.24027828,42,男,杭州市,商业-公寓,商业贷款,1323186,97.29,13600.43,三室两厅一卫,醉墨小镇
刘磊 (13),吴山广场28号,120.1589495,30.24036133,42,女,杭州市,商业-公寓,组合贷款,1148952,97.2,11820.49,三室两厅一卫,醉墨小镇
刘磊 (14),中山南路451-461号,120.1662424,30.23920805,42,女,杭州市,商业-公寓,商业贷款,1513428,113.34,13352.99,三室两厅两卫,醉墨小镇
刘磊 (15),望江路266号,120.1683596,30.24023396,42,女,杭州市,商业-公寓,组合贷款,1525011,113.6,13424.39,三室两厅两卫,醉墨小镇
刘磊 (16),龙井路78号附近,120.120433,30.23533724,42,男,杭州市,商业-公寓,一次性,1513689,115.45,13111.21,三室两厅两卫,醉墨小镇
刘磊 (17),中山南路347附近,120.1658053,30.23638843,42,女,杭州市,商业-公寓,组合贷款,1194431,89.17,13394.99,三室两厅一卫,醉墨小镇
刘磊 (18),龙井路88号,120.1163599,30.23511022,42,男,杭州市,商业-公寓,组合贷款,1160328,89.17,13012.54,三室两厅一卫,醉墨小镇
刘磊 (19),龙井路79号,120.1200653,30.2347069,42,男,杭州市,商业-公寓,商业贷款,1351163,97.29,13887.99,三室两厅一卫,醉墨小镇
吕浩,城中街428号,119.7135709,30.23208432,42,男,杭州市,住宅-高层,商业贷款,1930225,143.16,13482.99,四室两厅两卫,醉墨小镇
崔凯,杭州市,120.1516408,30.23224657,42,男,杭州市,住宅-小高层,商业贷款,1532485,114.75,13354.99,三室两厅两卫,醉墨小镇
杨悦,钱王街119之1-7,119.7398921,30.2271795,42,男,杭州市,商业-公寓,商业贷款,1321274,97.31,13577.99,三室两厅一卫,醉墨小镇
杨悦 (1),玉皇山路73-1号,120.1472869,30.22515238,42,女,杭州市,商业-公寓,组合贷款,1284467,97.31,13199.74,三室两厅一卫,醉墨小镇
杨悦 (2),南复路60号,120.1502385,30.21143535,42,男,杭州市,商业-公寓,商业贷款,1662831,126.86,13107.61,四室两厅两卫,醉墨小镇
杨悦 (3),凤凰山路9号江洋畈公园内,120.1386485,30.21020301,42,男,杭州市,商业-公寓,商业贷款,1194804,88.55,13492.99,三室两厅一卫,醉墨小镇
杨悦 (4),虎玉路32号马2层,120.144695,30.20942388,42,男,杭州市,商业-公寓,商业贷款,1200117,88.55,13552.99,三室两厅一卫,醉墨小镇
杨悦 (5),华浪线北50米,118.938848,30.20566597,42,男,杭州市,商业-公寓,商业贷款,1497561,113.34,13213,三室两厅两卫,醉墨小镇
杨悦 (6),北干街道通惠北路35号,120.2802823,30.19816503,42,男,杭州市,商业-公寓,商业贷款,1707977,126.94,13454.99,四室两厅两卫,醉墨小镇
杨悦 (7),世贸中心内,120.1648187,30.19654389,42,男,杭州市,商业-公寓,商业贷款,1522208,115.45,13185,三室两厅两卫,醉墨小镇
杨悦 (8),梅灵南路15号,120.0827108,30.19192635,42,男,杭州市,商业-公寓,商业贷款,1337542,97.29,13747.99,三室两厅一卫,醉墨小镇
杨悦 (9),秋溢路226号附近,120.1975152,30.19311303,42,男,杭州市,商业-公寓,商业贷款,1334488,97.29,13716.6,三室两厅一卫,醉墨小镇
刘乐,官河路25号,120.2225528,30.19177934,42,男,杭州市,商业-商铺,商业贷款,1300827,97.2,13382.99,三室两厅一卫,醉墨小镇
杨悦 (10),双桥民丰河南路与昙华路交叉口南150米,120.3999499,30.18400699,42,男,杭州市,商业-公寓,商业贷款,1323220,97.31,13597.99,三室两厅一卫,醉墨小镇
杨悦 (11),梅灵南路3号,120.0920402,30.17914436,42,男,杭州市,商业-公寓,商业贷款,1531173,115.36,13273,三室两厅两卫,醉墨小镇
杨悦 (12),滨文路548号浙江中医药大学行政楼内,120.1433949,30.18006607,42,男,杭州市,商业-公寓,商业贷款,1200395,88.44,13572.99,三室两厅一卫,醉墨小镇
杨悦 (13),之江路148号宋城,120.094749,30.17301959,42,女,杭州市,商业-公寓,商业贷款,1188606,88.55,13422.99,三室两厅一卫,醉墨小镇
杨悦 (14),之江路148号宋城,120.0945688,30.17360755,42,女,杭州市,商业-公寓,商业贷款,1188606,88.55,13422.99,三室两厅一卫,醉墨小镇
杨悦 (15),北干山南路651号,120.2802383,30.17384212,42,男,杭州市,商业-公寓,商业贷款,1677773,126.12,13302.99,四室两厅两卫,醉墨小镇
杨悦 (16),北干山南路644-650,120.2800275,30.17302041,42,男,杭州市,商业-公寓,商业贷款,1188606,88.55,13422.99,三室两厅一卫,醉墨小镇
杨悦 (17),北干山南路630-632号,120.2795598,30.17293398,42,男,杭州市,商业-公寓,商业贷款,1202457,89.17,13484.99,三室两厅一卫,醉墨小镇
杨悦 (18),一号路与四号路交叉口东150米,120.2009432,30.16443729,42,女,杭州市,商业-公寓,商业贷款,1172438,89.17,13148.35,三室两厅一卫,醉墨小镇
周峰,转塘镇象山352号中国美术学院象山校区内,120.0740969,30.15687845,42,女,杭州市,商业-公寓,商业贷款,1352136,97.29,13898,三室两厅一卫,醉墨小镇
周峰 (1),杭新路与美院南路交叉口西200米,120.0744491,30.15399823,42,男,杭州市,商业-公寓,商业贷款,1350190,97.29,13877.99,三室两厅一卫,醉墨小镇
周峰 (2),沈家里路与潘水路交叉口东南100米,120.2488788,30.15138005,42,男,杭州市,商业-公寓,商业贷款,1354081,97.29,13917.99,三室两厅一卫,醉墨小镇
周峰 (3),湘湖路978号(近湘湖),120.2174394,30.14409232,42,女,杭州市,商业-公寓,商业贷款,1331979,97.31,13688,三室两厅一卫,醉墨小镇
周峰 (4),转塘镇河山路176号,120.0886638,30.13124423,42,女,杭州市,商业-公寓,商业贷款,1323220,97.31,13597.99,三室两厅一卫,醉墨小镇
周峰 (5),达夫路95号,119.9538583,30.05098679,42,男,杭州市,商业-公寓,商业贷款,1194327,88.91,13432.99,三室两厅一卫,醉墨小镇
周峰 (6),临安湍口众安氡温泉度假酒店内,119.1604673,30.03890382,42,男,杭州市,商业-公寓,商业贷款,1687617,126.86,13302.99,四室两厅两卫,醉墨小镇
周峰 (7),龙门镇牌楼龙门古镇内,119.9453354,29.90413344,42,男,杭州市,商业-公寓,商业贷款,1196995,88.91,13463,三室两厅一卫,醉墨小镇
周峰 (8),龙门镇牌楼龙门古镇内,119.9455433,29.90108114,42,男,杭州市,商业-公寓,商业贷款,1196995,88.91,13463,三室两厅一卫,醉墨小镇
周峰 (9),白冷线,119.5309238,29.88889505,42,男,杭州市,商业-公寓,商业贷款,1171210,88.44,13242.99,三室两厅一卫,醉墨小镇
周峰 (10),近郊桐君街道学圣路646号,119.6946375,29.79848957,42,男,杭州市,商业-公寓,商业贷款,1185949,88.55,13392.99,三室两厅一卫,醉墨小镇
生滨,千岛湖镇新安大街6号1幢-1101室,119.0310354,29.60693053,42,男,杭州市,住宅-高层,商业贷款,1502094,113.34,13252.99,三室两厅两卫,醉墨小镇
李乐,狮城路附近,118.6690979,29.47630789,42,男,杭州市,住宅-高层,商业贷款,1186475,88.51,13404.98,三室两厅一卫,醉墨小镇
周峰 (11),塘栖嘉园景河路40-42号,120.1881189,30.48363868,42,男,杭州市,商业-公寓,商业贷款,2009026,143.42,14007.99,四室两厅两卫,醉墨小镇
周峰 (12),良渚东明山苑1号,119.9997366,30.43777968,42,男,杭州市,商业-公寓,商业贷款,1355054,97.29,13927.99,三室两厅一卫,醉墨小镇
周峰 (13),景山路85号,120.2921099,30.42586633,42,男,杭州市,商业-公寓,商业贷款,1340461,97.29,13777.99,三室两厅一卫,醉墨小镇
周峰 (14),将军殿弄36号,120.2963094,30.42292731,42,男,杭州市,商业-公寓,组合贷款,1292963,97.31,13287.05,三室两厅一卫,醉墨小镇
周峰 (15),南苑街道玩月街天健大厦4楼,120.3038351,30.40682796,42,男,杭州市,商业-公寓,商业贷款,1533479,115.36,13292.99,三室两厅两卫,醉墨小镇
周峰 (16),瓶窑镇新窑路288号云峰大厦1层,119.9698625,30.39552351,42,男,杭州市,商业-公寓,商业贷款,1207663,88.91,13582.98,三室两厅一卫,醉墨小镇
周峰 (17),艺尚小镇7号楼,120.2832356,30.38586632,42,女,杭州市,商业-公寓,商业贷款,1205885,88.91,13562.99,三室两厅一卫,醉墨小镇
周峰 (18),良渚镇良博路230号,120.0384806,30.38201237,42,男,杭州市,商业-公寓,商业贷款,1524251,115.36,13212.99,三室两厅两卫,醉墨小镇
周峰 (19),丁桥镇金色大唐城4幢12楼,120.2228823,30.3633964,42,男,杭州市,商业-公寓,商业贷款,1690155,126.86,13322.99,四室两厅两卫,醉墨小镇
周峰 (20),丁桥镇德珠商务中心4幢4楼,120.2272973,30.35340028,42,男,杭州市,商业-公寓,商业贷款,1694169,126.12,13432.99,四室两厅两卫,醉墨小镇
周峰 (21),长径线,119.8464566,30.33874348,42,女,杭州市,商业-公寓,商业贷款,1420529,113.34,12533.34,三室两厅两卫,醉墨小镇
周峰 (22),径山镇长乐村柴场组径西路20号,119.849411,30.33541882,42,男,杭州市,商业-公寓,商业贷款,1171650,88.75,13201.69,三室两厅一卫,醉墨小镇
周峰 (23),通济路白马尊邸14号,120.0769484,30.33704474,42,女,杭州市,商业-公寓,商业贷款,1190016,88.51,13444.99,三室两厅一卫,醉墨小镇
周峰 (24),良渚街道亲亲家园3期三和大街90号三楼,120.0792757,30.33681517,42,男,杭州市,商业-公寓,商业贷款,1986816,143.42,13853.13,四室两厅两卫,醉墨小镇
周峰 (25),石祥路与石祥路入口交叉口西南200米,120.1315369,30.33370675,42,男,杭州市,商业-公寓,商业贷款,1339488,97.29,13767.99,三室两厅一卫,醉墨小镇
周峰 (26),永庆路左岸花园7幢7-11,120.1358911,30.3320073,42,女,杭州市,商业-公寓,商业贷款,1323201,97.13,13622.99,三室两厅一卫,醉墨小镇
周峰 (27),拱宸桥街道新昌路125号,120.1396464,30.32640687,42,男,杭州市,商业-公寓,商业贷款,1313488,97.13,13522.99,三室两厅一卫,醉墨小镇
周峰 (28),小河路458号西岸国际艺术区7号楼,120.1326314,30.32427059,42,女,杭州市,商业-公寓,商业贷款,1923067,143.16,13432.99,四室两厅两卫,醉墨小镇
周峰 (29),拱宸桥街道湖州街311西瑞大厦515室,120.1290015,30.32565342,42,男,杭州市,商业-公寓,商业贷款,1306659,97.2,13442.99,三室两厅一卫,醉墨小镇
周峰 (30),通益路111号loft49(Loft49创意产业园),120.1264869,30.32291655,42,女,杭州市,商业-公寓,商业贷款,1287219,97.2,13242.99,三室两厅一卫,醉墨小镇
周峰 (31),万科魅力之城11幢2单元102号(彩虹伞儿童成长会所对面),120.2527417,30.32292359,42,女,杭州市,商业-公寓,商业贷款,1318355,97.31,13547.99,三室两厅一卫,醉墨小镇
周峰 (32),学源街1158号文创大厦815,120.3321966,30.32177803,42,女,杭州市,商业-公寓,商业贷款,1201440,88.91,13512.99,三室两厅一卫,醉墨小镇
周峰 (33),沈半路与舟山东路交叉口东南200米,120.1578507,30.31934443,42,男,杭州市,商业-公寓,商业贷款,1696498,126.86,13372.99,四室两厅两卫,醉墨小镇
周峰 (34),古墩路381-28号,120.0894946,30.31668678,42,男,杭州市,商业-公寓,商业贷款,1527712,115.36,13243,三室两厅两卫,醉墨小镇
周峰 (35),小河路334号,120.1322671,30.31769793,42,女,杭州市,商业-公寓,商业贷款,1190376,88.55,13442.98,三室两厅一卫,醉墨小镇
周峰 (36),登云路231号,120.1294042,30.31637717,42,男,杭州市,商业-公寓,商业贷款,1197237,88.75,13489.99,三室两厅一卫,醉墨小镇
周峰 (37),金华路100号锦昌文华苑正对面,120.1374457,30.31270921,42,男,杭州市,商业-公寓,商业贷款,1192207,88.64,13449.99,三室两厅一卫,醉墨小镇
周峰 (38),沈半路8号,120.1521343,30.31469861,42,男,杭州市,商业-公寓,商业贷款,1540322,115.38,13349.99,三室两厅两卫,醉墨小镇
周峰 (39),香积寺东路171号,120.1779602,30.31091004,42,女,杭州市,商业-公寓,商业贷款,1626140,126.19,12886.44,四室两厅两卫,醉墨小镇
周峰 (40),高沙路物美超市4楼,120.3298271,30.31133785,42,男,杭州市,商业-公寓,商业贷款,1200492,88.63,13544.98,三室两厅一卫,醉墨小镇
周峰 (41),九堡镇艮山东路6号,120.2579596,30.30656765,42,男,杭州市,商业-公寓,商业贷款,1153171,88.62,13012.54,三室两厅一卫,醉墨小镇
周峰 (42),仁爱路红苹果12幢3单元,120.2752196,30.30585014,42,男,杭州市,商业-公寓,商业贷款,1994684,143.42,13907.99,四室两厅两卫,醉墨小镇
周峰 (43),和达创意设计园6幢5层506室,120.3420397,30.30205235,42,男,杭州市,商业-公寓,商业贷款,1887468,143.42,13160.42,四室两厅两卫,醉墨小镇
周峰 (44),和睦路2元谷和睦文化创意园2号楼2幢2-201,120.141656,30.30028136,42,男,杭州市,商业-公寓,商业贷款,1351163,97.29,13887.99,三室两厅一卫,醉墨小镇
周峰 (45),信义坊商街190号2层,120.1394413,30.2968202,42,女,杭州市,商业-公寓,商业贷款,1318344,97.13,13572.98,三室两厅一卫,醉墨小镇
周峰 (46),信义坊商街190号二楼,120.138173,30.29653624,42,女,杭州市,商业-公寓,商业贷款,1330000,97.13,13692.99,三室两厅一卫,醉墨小镇
周峰 (47),大运河富义仓内,120.1456954,30.29727343,42,男,杭州市,商业-公寓,商业贷款,1933088,143.16,13502.99,四室两厅两卫,醉墨小镇
周峰 (48),德胜快速路与湖墅南路交叉口东南100米,120.1446699,30.29253121,42,男,杭州市,商业-公寓,商业贷款,1960193,143.31,13677.99,四室两厅两卫,醉墨小镇
周峰 (49),下沙邻里中心14幢2楼,120.3515278,30.29265526,42,女,杭州市,商业-公寓,商业贷款,1663514,126.86,13112.99,四室两厅两卫,醉墨小镇
周峰 (50),崇义路郡原-公元里7栋,120.0551408,30.28993025,42,男,杭州市,商业-公寓,商业贷款,1187130,88.44,13423,三室两厅一卫,醉墨小镇
周峰 (51),文一西路170号湖畔大厦,120.0980965,30.28938908,42,女,杭州市,商业-公寓,一次性,1681788,126.41,13304.23,四室两厅两卫,醉墨小镇
周峰 (52),文一西路833号西溪风情花园新天地1-17号,120.0316188,30.28552263,42,女,杭州市,商业-公寓,商业贷款,1441810,113.6,12691.99,三室两厅两卫,醉墨小镇
周峰 (53),西溪花园红柿苑11幢三单元101,120.0575857,30.28700156,42,女,杭州市,商业-公寓,商业贷款,1554168,115.38,13469.99,三室两厅两卫,醉墨小镇
张占,古墩路413号文新图书大楼2层,120.0940949,30.28511307,42,男,杭州市,住宅-小高层,商业贷款,1715593,126.94,13514.99,四室两厅两卫,醉墨小镇
中国,紫桂花园27幢二楼,120.0977765,30.2857684,42,女,杭州市,商业-商铺,组合贷款,1218218,88.63,13744.98,三室两厅一卫,醉墨小镇
中国 (1),通普路与高技街交叉口东50米,120.1126126,30.28688458,42,女,杭州市,商业-商铺,商业贷款,1680315,126.96,13235,四室两厅两卫,醉墨小镇
中国 (2),西溪街道文二路188号省团校教学楼,120.1320452,30.28582731,42,女,杭州市,商业-商铺,商业贷款,1662996,126.22,13175.38,四室两厅两卫,醉墨小镇
中国 (3),文晖路22号现代置业大厦东楼814室,120.1751921,30.28566978,42,女,杭州市,商业-商铺,商业贷款,1349217,97.29,13867.99,三室两厅一卫,醉墨小镇
周峰 (54),文二西路716-1号西溪乐谷创意产业园1号楼,120.0735362,30.28369907,42,女,杭州市,商业-公寓,商业贷款,1327542,97.29,13645.21,三室两厅一卫,醉墨小镇
周峰 (55),文二西路益乐路口南都银座公寓,120.1079161,30.28386663,42,女,杭州市,商业-公寓,商业贷款,1848711,143.16,12913.6,四室两厅两卫,醉墨小镇
周峰 (56),湖墅南路186号时钟教室二楼,120.1489617,30.28428345,42,男,杭州市,商业-公寓,商业贷款,1965926,143.31,13718,四室两厅两卫,醉墨小镇
周峰 (57),天目山路518号西溪国家湿地公园内,120.065802,30.28196248,42,女,杭州市,住宅-小高层,商业贷款,1530289,115.45,13254.99,三室两厅两卫,醉墨小镇
周峰 (58),中山北路西湖文化广场C座4层,120.1591388,30.27983632,42,女,杭州市,商业-公寓,一次性,1305038,97.31,13411.14,三室两厅一卫,醉墨小镇
周峰 (59),西湖文化广场32号4楼,120.1585089,30.27989414,42,女,杭州市,商业-公寓,商业贷款,1953760,143.31,13633.1,四室两厅两卫,醉墨小镇
周峰 (60),秋水弄26号(中北花园旁边)长江实验小学,120.1635088,30.28015144,42,男,杭州市,商业-公寓,商业贷款,1198773,88.91,13482.99,三室两厅一卫,醉墨小镇
周峰 (61),海创大厦b幢1层106室,119.9856626,30.2781516,42,男,杭州市,商业-公寓,商业贷款,1199661,88.91,13492.98,三室两厅一卫,醉墨小镇
周峰 (62),学院路60号集锦饭店院内2号楼2楼,120.1259946,30.27735615,42,女,杭州市,商业-公寓,商业贷款,1693498,126.86,13349.35,四室两厅两卫,醉墨小镇
周峰 (63),环城北路22号包杭大厦5层,120.1780672,30.27790987,42,男,杭州市,商业-公寓,商业贷款,1699841,126.86,13399.35,四室两厅两卫,醉墨小镇
周峰 (64),天目山路518号西溪国家湿地公园,120.0630063,30.27459082,42,女,杭州市,商业-公寓,商业贷款,1528865,115.36,13252.99,三室两厅两卫,醉墨小镇
周峰 (65),环城北路177号新华印刷厂(近杭州游泳馆),120.1641029,30.27548301,42,男,杭州市,商业-公寓,商业贷款,1694169,126.12,13432.99,四室两厅两卫,醉墨小镇
周峰 (66),中江花园6幢,120.1813942,30.27515619,42,女,杭州市,商业-公寓,商业贷款,1505695,113.34,13284.76,三室两厅两卫,醉墨小镇
周峰 (67),武林路437号农发大厦5层,120.1537094,30.27260406,42,女,杭州市,商业-公寓,商业贷款,1189783,88.44,13453,三室两厅一卫,醉墨小镇
周峰 (68),体育场路210号体育馆健身综合楼B楼3楼,120.1690138,30.27353543,42,男,杭州市,商业-公寓,商业贷款,1715383,126.41,13569.99,四室两厅两卫,醉墨小镇
周峰 (69),锦北街道金马村吴家头30号,119.6972985,30.26963656,49,男,杭州市,商业-公寓,商业贷款,1193316,89.12,13389.99,三室两厅一卫,醉墨小镇
周峰 (70),中山北路237号,120.164527,30.26618567,49,女,杭州市,商业-公寓,商业贷款,1531092,115.38,13269.99,三室两厅两卫,醉墨小镇
周峰 (71),凤起东路189号新城时代广场3幢508(新塘路国美电器楼上),120.2027813,30.26649195,49,男,杭州市,商业-公寓,商业贷款,1682100,126.94,13251.14,四室两厅两卫,醉墨小镇
周峰 (72),北山街38号,120.1413275,30.25993484,49,男,杭州市,商业-公寓,商业贷款,1166724,89.13,13090.14,三室两厅一卫,醉墨小镇
周峰 (73),孤山路1号中山公园内,120.1385244,30.25510678,49,男,杭州市,商业-公寓,商业贷款,1197106,89.17,13424.99,三室两厅一卫,醉墨小镇
周峰 (74),中山中路381号,120.1655089,30.25451851,49,女,杭州市,商业-公寓,商业贷款,1959920,143.29,13678,四室两厅两卫,醉墨小镇
周峰 (75),华润大厦A座6楼603-1,120.2104017,30.25623886,49,男,杭州市,商业-公寓,商业贷款,1984279,143.29,13847.99,四室两厅两卫,醉墨小镇
周峰 (76),万象城华润大厦A座603室内,120.2104017,30.25623886,49,女,杭州市,商业-公寓,商业贷款,1971383,143.29,13757.99,四室两厅两卫,醉墨小镇
周峰 (77),孤山后山路10号中国印学博物馆2楼,120.13485,30.25364831,49,男,杭州市,商业-公寓,商业贷款,1964218,143.29,13707.99,四室两厅两卫,醉墨小镇
周峰 (78),孤山路25号,120.1399714,30.25403215,49,男,杭州市,商业-公寓,商业贷款,1191551,88.44,13472.99,三室两厅一卫,醉墨小镇
周峰 (79),龙井路1号杭州西湖风景名胜区内,120.1392545,30.25345106,49,男,杭州市,住宅-小高层,商业贷款,1538370,115.45,13324.99,三室两厅两卫,醉墨小镇
周峰 (80),延安路179号(解百新元华4楼),120.1589425,30.25190444,49,女,杭州市,商业-公寓,商业贷款,1314459,97.13,13532.99,三室两厅一卫,醉墨小镇
周峰 (81),邮电路23号浙江长城资产大楼1层,120.1623926,30.25394371,49,女,杭州市,商业-公寓,商业贷款,1335188,97.14,13744.99,三室两厅一卫,醉墨小镇
周峰 (82),中山中路与崔家巷交叉口西50米,120.1653284,30.25342226,49,女,杭州市,商业-公寓,商业贷款,1331303,97.14,13704.99,三室两厅一卫,醉墨小镇
周峰 (83),解放路91-93号天工艺苑5楼,120.1733966,30.25255347,49,男,杭州市,商业-公寓,商业贷款,1866764,143.16,13039.7,四室两厅两卫,醉墨小镇
周峰 (84),湖滨街道定安路126号西湖创意谷,120.1623058,30.24903593,49,男,杭州市,商业-公寓,商业贷款,1280415,97.2,13172.99,三室两厅一卫,醉墨小镇
周峰 (85),清波街道后市街82-1号,120.1655447,30.24646121,49,男,杭州市,商业-公寓,组合贷款,1961626,143.31,13687.99,四室两厅两卫,醉墨小镇
周峰 (86),"万马路,衣锦人家小区5幢3单元306(西墅公园对面)",119.6973944,30.24560841,49,女,杭州市,商业-公寓,一次性,1534633,115.36,13302.99,三室两厅两卫,醉墨小镇
周峰 (87),西溪路留下街118号西溪时代商务中心,120.0494024,30.24556061,49,女,杭州市,商业-公寓,商业贷款,1521943,115.36,13192.99,三室两厅两卫,醉墨小镇
周峰 (88),南山路202,120.1539756,30.24393594,49,男,杭州市,商业-公寓,商业贷款,1504639,115.36,13042.99,三室两厅两卫,醉墨小镇
周峰 (89),惠民路75-5吴山商务综合楼705室,120.1605419,30.24438399,49,男,杭州市,商业-公寓,一次性,1166694,88.75,13145.85,三室两厅一卫,醉墨小镇
周峰 (90),劳动路26号,120.1580004,30.24429928,49,男,杭州市,商业-公寓,商业贷款,1638651,126.41,12962.99,四室两厅两卫,醉墨小镇
周峰 (91),建国南路河水弄20号,120.1723251,30.2442751,49,男,杭州市,商业-公寓,商业贷款,1204617,88.64,13589.99,三室两厅一卫,醉墨小镇
牟立,长桥路362号,119.7229543,30.24290232,49,女,杭州市,商业-公寓,商业贷款,1531327,113.6,13479.99,三室两厅两卫,醉墨小镇
周峰 (92),荊山岭路2号汇峰国际商务中心D座D303室(西溪印象城),120.0464458,30.24181171,49,男,杭州市,商业-公寓,商业贷款,1663922,126.41,13162.9,四室两厅两卫,醉墨小镇
周峰 (93),南山路186号,120.1537792,30.24139778,49,男,杭州市,商业-公寓,商业贷款,1190137,88.75,13409.99,三室两厅一卫,醉墨小镇
周峰 (94),南山路182-1号,120.1537923,30.24099983,49,男,杭州市,商业-公寓,商业贷款,1129787,88.75,12729.99,三室两厅一卫,醉墨小镇
周峰 (95),河坊街512-514号,120.1551051,30.24206214,51,男,杭州市,商业-公寓,商业贷款,1192207,88.64,13449.99,三室两厅一卫,醉墨小镇
周峰 (96),延安路1号附近,120.1588279,30.24333789,51,女,杭州市,商业-公寓,商业贷款,1191912,88.75,13429.99,三室两厅一卫,醉墨小镇
周峰 (97),延安路1号吴山古玩城A-065,120.1587367,30.24329172,51,女,杭州市,商业-公寓,公积金贷款,1195753,88.64,13489.99,三室两厅一卫,醉墨小镇
周峰 (98),河坊街388号吴山酩楼大酒店7层,120.1582934,30.24275894,51,男,杭州市,商业-公寓,商业贷款,1198663,89.12,13449.99,三室两厅一卫,醉墨小镇
周峰 (99),安荣巷41-53号附近,120.1623134,30.24178449,51,男,杭州市,商业-公寓,商业贷款,1199554,89.12,13459.99,三室两厅一卫,醉墨小镇
周峰 (100),中山中路11-13号,120.1664759,30.24086937,51,女,杭州市,商业-公寓,商业贷款,1125585,89.12,12629.99,三室两厅一卫,醉墨小镇
周峰 (101),城星路89号娃哈哈未来城3楼,120.203471,30.24182893,51,男,杭州市,商业-公寓,商业贷款,1188861,89.12,13340,三室两厅一卫,醉墨小镇
周峰 (102),闲林镇闲富北路竹海水韵春风里4-19号,119.9787931,30.23993425,51,女,杭州市,商业-公寓,一次性,1442396,114.08,12643.72,三室两厅两卫,醉墨小镇
周峰 (103),竹海水韵润泽园-2-2商铺,119.978015,30.24072347,51,女,杭州市,商业-公寓,商业贷款,1198352,89.13,13444.99,三室两厅一卫,醉墨小镇
周峰 (104),南山路学士桥6号学士居1层,120.150507,30.23851312,51,男,杭州市,商业-公寓,商业贷款,1201026,89.13,13474.99,三室两厅一卫,醉墨小镇
周峰 (105),中山南路487号3层,120.1664359,30.23971338,51,女,杭州市,商业-公寓,商业贷款,1625302,126.22,12876.74,四室两厅两卫,醉墨小镇
周峰 (106),钱江新城cbd森林路与市民街交叉口中华·钱塘航空大厦13层,120.2043714,30.23934635,51,男,杭州市,商业-公寓,商业贷款,1342406,97.29,13797.99,三室两厅一卫,醉墨小镇
周峰 (107),南山路33号长桥公园,120.1505644,30.23543944,51,男,杭州市,商业-公寓,商业贷款,1350190,97.29,13877.99,三室两厅一卫,醉墨小镇
周峰 (108),南山路138号,120.1521652,30.23345443,51,男,杭州市,商业-公寓,组合贷款,1319316,97.13,13582.99,三室两厅一卫,醉墨小镇
周峰 (109),水门南弄3号锦绣创意工坊2号,120.169988,30.23368848,51,男,杭州市,商业-公寓,商业贷款,1322230,97.13,13612.99,三室两厅一卫,醉墨小镇
周峰 (110),婺江路333号华辰凤庭大酒店4楼,120.1899536,30.23504644,51,女,杭州市,商业-公寓,商业贷款,1971383,143.29,13757.99,四室两厅两卫,醉墨小镇
周峰 (111),南苑东路18号,119.7148392,30.23179092,51,男,杭州市,商业-公寓,商业贷款,1979980,143.29,13817.99,四室两厅两卫,醉墨小镇
周峰 (112),江城路355号丽园8号楼,120.1680033,30.23134491,51,男,杭州市,商业-公寓,商业贷款,1332914,97.13,13722.99,三室两厅一卫,醉墨小镇
周之,城中街967-969号,119.6980762,30.22779059,51,男,杭州市,住宅-高层,商业贷款,1974249,143.29,13778,四室两厅两卫,醉墨小镇
周峰 (113),锦城街道大华路130号,119.7046858,30.22754787,51,男,杭州市,商业-公寓,商业贷款,1307660,97.13,13462.99,三室两厅一卫,醉墨小镇
周峰 (114),锦城街道石镜街272-13号,119.7184679,30.22844237,51,男,杭州市,商业-公寓,商业贷款,1269373,97.13,13068.8,三室两厅一卫,醉墨小镇
周峰 (115),凤凰山脚路7号凤凰御元艺术基地D区18号,120.1626168,30.22412426,51,男,杭州市,商业-公寓,商业贷款,1949889,143.29,13607.99,四室两厅两卫,醉墨小镇
周峰 (116),萧山经济技术开发区高新五路盛达名苑外大润发超市二楼,120.3037463,30.22351182,51,女,杭州市,商业-公寓,商业贷款,1328389,97.14,13674.99,三室两厅一卫,醉墨小镇
周春,凤凰山脚路45号,120.1643202,30.2199477,51,男,杭州市,商业-公寓,商业贷款,1933088,143.16,13502.99,四室两厅两卫,醉墨小镇
周峰 (117),市心北路718号天林广场2幢3单元1201室,120.2664128,30.21896899,51,男,杭州市,商业-公寓,商业贷款,1944541,143.16,13582.99,四室两厅两卫,湖悦山色
周峰 (118),江陵路2028号星耀城1楼,120.2100202,30.21631818,51,男,杭州市,商业-公寓,商业贷款,1938815,143.16,13542.99,四室两厅两卫,湖悦山色
周峰 (119),宁围镇振宁路813号2楼,120.2629522,30.21804555,51,男,杭州市,商业-公寓,组合贷款,1242410,97.2,12782,三室两厅一卫,湖悦山色
周峰 (120),凤凰山路大资福庙前33号,120.151771,30.21079111,51,男,杭州市,商业-公寓,商业贷款,1258974,97.2,12952.41,三室两厅一卫,湖悦山色
周峰 (121),之江路558号东街6号,120.1675204,30.21270614,51,女,杭州市,商业-公寓,商业贷款,1897298,143.16,13252.99,四室两厅两卫,湖悦山色
周峰 (122),滨盛路1605号附近,120.2041992,30.21218784,51,男,杭州市,商业-公寓,商业贷款,1296939,97.2,13342.99,三室两厅一卫,湖悦山色
周峰 (123),长河街道江南大道星光国际3号楼301,120.2039958,30.21064564,51,女,杭州市,商业-公寓,组合贷款,1285411,97.31,13209.44,三室两厅一卫,湖悦山色
周峰 (124),虎玉路18号,120.1407804,30.2082945,51,男,杭州市,商业-公寓,商业贷款,1317247,97.31,13536.6,三室两厅一卫,湖悦山色
周峰 (125),钱龙大厦1714室,120.1979579,30.21011486,51,男,杭州市,商业-公寓,商业贷款,1212109,88.91,13632.99,三室两厅一卫,湖悦山色
周峰 (126),虎跑路32号,120.1339709,30.20490022,51,男,杭州市,商业-公寓,商业贷款,1692692,126.86,13342.99,四室两厅两卫,湖悦山色
周峰 (127),江汉路1671号,120.1985226,30.20691289,51,男,杭州市,商业-公寓,商业贷款,1633557,126.12,12952.4,四室两厅两卫,湖悦山色
周峰 (128),月明路1088号,120.2037398,30.20368466,51,女,杭州市,商业-公寓,商业贷款,1705270,126.41,13489.99,四室两厅两卫,湖悦山色
程咏,转塘街道留泗路外桐坞村47-1号,120.0526192,30.20102443,51,女,杭州市,商业-公寓,商业贷款,1522239,113.6,13399.99,三室两厅两卫,湖悦山色
周峰 (129),复兴街405号白塔公园内,120.136256,30.20143379,51,男,杭州市,商业-公寓,商业贷款,1707798,126.41,13509.99,四室两厅两卫,湖悦山色
毕玉,闻涛路与西环路交叉口往西400米(近钱江一桥)银杏汇,120.1423008,30.19220976,51,女,杭州市,住宅-高层,商业贷款,1207276,88.64,13619.99,三室两厅一卫,湖悦山色
周峰 (130),彩虹城35号,120.1500456,30.19119801,51,男,杭州市,商业-公寓,商业贷款,1542687,113.6,13579.99,三室两厅两卫,湖悦山色
周峰 (131),彩虹城75号,120.1484429,30.19281913,51,男,杭州市,商业-公寓,商业贷款,1203449,88.75,13559.99,三室两厅一卫,湖悦山色
周敏,滨兴路与齐飞路交叉口西南150米,120.1953115,30.19315559,51,男,杭州市,商业-公寓,商业贷款,1190434,88.64,13429.99,三室两厅一卫,湖悦山色
周敏 (1),火炬大道与江南大道交汇处宝龙城市广场,120.1631522,30.19039605,51,男,杭州市,商业-公寓,商业贷款,1515423,113.6,13339.99,三室两厅两卫,湖悦山色
周敏 (2),诚业路415号,120.1657261,30.187626,51,男,杭州市,住宅-高层,商业贷款,1540401,115.36,13352.99,三室两厅两卫,湖悦山色
周敏 (3),金惠路751号,120.2558468,30.18766588,51,男,杭州市,商业-公寓,商业贷款,1695157,126.41,13409.99,四室两厅两卫,湖悦山色
周敏 (4),友谊路431号,120.4535235,30.18678222,53,女,杭州市,商业-公寓,商业贷款,1518831,113.6,13369.99,三室两厅两卫,湖悦山色
周敏 (5),转塘街道龙坞1号,120.0549361,30.18352419,53,女,杭州市,商业-公寓,商业贷款,1702742,126.41,13469.99,四室两厅两卫,湖悦山色
周敏 (6),张前弄6号附近,120.0636298,30.1817531,53,女,杭州市,商业-公寓,商业贷款,1549552,115.38,13429.99,三室两厅两卫,湖悦山色
周敏 (7),龙坞茶村34号,120.0309752,30.1779646,53,男,杭州市,商业-公寓,商业贷款,1562244,115.38,13539.99,三室两厅两卫,湖悦山色
周敏 (8),明志路63号,120.1583423,30.17413674,53,男,杭州市,商业-公寓,商业贷款,1195989,89.12,13419.98,三室两厅一卫,湖悦山色
周敏 (9),工人路246-248号,120.2590678,30.17123704,53,男,杭州市,商业-公寓,商业贷款,1186186,89.12,13309.99,三室两厅一卫,湖悦山色
周敏 (10),转塘街道之江度假区珊瑚沙路52号公元沐桥负一楼(宋城南),120.0930319,30.16823972,53,女,杭州市,商业-公寓,商业贷款,1531092,115.38,13269.99,三室两厅两卫,湖悦山色
周敏 (11),冠三路8号,120.1588292,30.16815285,53,男,杭州市,商业-公寓,商业贷款,1191533,89.12,13369.98,三室两厅一卫,湖悦山色
周敏 (12),城厢街道江寺公园交辉楼,120.267025,30.16645691,53,男,杭州市,商业-公寓,组合贷款,1305718,97.13,13442.99,三室两厅一卫,湖悦山色
周敏 (13),萧绍路1107号,120.2709988,30.16737941,53,女,杭州市,商业-公寓,商业贷款,1305718,97.13,13442.99,三室两厅一卫,湖悦山色
周敏 (14),象山路朗郡庭园君临阁2702室,120.0630046,30.16583553,53,女,杭州市,商业-公寓,组合贷款,1319316,97.13,13582.99,三室两厅一卫,湖悦山色
周敏 (15),转塘方家畈152号(转塘茶叶市场旁),120.0717137,30.16383143,53,女,杭州市,商业-公寓,商业贷款,1968517,143.29,13737.99,四室两厅两卫,湖悦山色
周敏 (16),文化路89-13号附近,120.2662962,30.16471855,53,女,杭州市,商业-公寓,商业贷款,1324172,97.13,13632.99,三室两厅一卫,湖悦山色
周敏 (17),转塘街道方家畈163号,120.068276,30.16278808,53,女,杭州市,商业-公寓,商业贷款,1910851,143.29,13335.55,四室两厅两卫,湖悦山色
周敏 (18),园区中路7号,120.1580885,30.16256066,53,女,杭州市,商业-公寓,商业贷款,1311545,97.13,13502.99,三室两厅一卫,湖悦山色
陈劲,河浜路38号(战备桥头),120.2591476,30.16193831,53,男,杭州市,商业-公寓,商业贷款,1952755,143.29,13627.99,四室两厅两卫,湖悦山色
陈劲 (1),河浜路38号,120.2592526,30.16180526,53,男,杭州市,商业-公寓,商业贷款,1280998,97.14,13187.13,三室两厅一卫,湖悦山色
谢鲁,转塘街道转塘直街南1号,120.0754745,30.16037419,60,女,杭州市,住宅-高层,商业贷款,1312846,97.14,13514.99,三室两厅一卫,湖悦山色
陈劲 (2),越王路108-8号,120.2300402,30.15954577,60,女,杭州市,商业-公寓,商业贷款,1238048,97.14,12744.99,三室两厅一卫,湖悦山色
陈劲 (3),市心南路406-426号,120.2628143,30.15625332,60,男,杭州市,商业-公寓,商业贷款,1313818,97.14,13524.99,三室两厅一卫,湖悦山色
陈劲 (4),杭新路与转之路交叉口西南150米,120.075098,30.15523565,60,男,杭州市,商业-公寓,商业贷款,1277500,97.2,13143,三室两厅一卫,湖悦山色
陈劲 (5),东环路与杭新路交叉口西南150米,120.0744544,30.15114131,60,男,杭州市,商业-公寓,商业贷款,1911614,143.16,13352.99,四室两厅两卫,湖悦山色
陈劲 (6),象山国际艺术区,120.0741764,30.15119354,60,女,杭州市,商业-公寓,商业贷款,1308603,97.2,13462.99,三室两厅一卫,湖悦山色
陈劲 (7),象山国际艺术区1栋2单元4层,120.0743944,30.15109036,60,女,杭州市,商业-公寓,商业贷款,1282359,97.2,13192.99,三室两厅一卫,湖悦山色
陈劲 (8),九龙大道426号,119.9823808,30.14853897,60,男,杭州市,商业-公寓,商业贷款,1307631,97.2,13452.99,三室两厅一卫,湖悦山色
李徽,转塘鸡山路象山路交叉口合诚之江商务中心首尔印象二楼,120.0678177,30.14469311,60,女,杭州市,住宅-高层,商业贷款,1305687,97.2,13432.99,三室两厅一卫,湖悦山色
陈劲 (9),凌周线附近,120.0748513,30.14015225,60,男,杭州市,商业-公寓,商业贷款,1937383,143.16,13532.99,四室两厅两卫,湖悦山色
陈劲 (10),转塘镇贤家庄176号,120.0885421,30.13882809,60,女,杭州市,商业-公寓,商业贷款,1277234,97.2,13140.27,三室两厅一卫,湖悦山色
陈劲 (11),转塘街道,120.0592698,30.13870966,60,女,杭州市,商业-公寓,商业贷款,1921636,143.16,13423,四室两厅两卫,湖悦山色
陈劲 (12),转塘街道新沙树玉青生态园,120.1327395,30.1364059,60,女,杭州市,商业-公寓,商业贷款,1314462,97.31,13507.98,三室两厅一卫,湖悦山色
陈劲 (13),上宋街193,119.9663872,30.13369397,60,男,杭州市,商业-公寓,商业贷款,1530019,115.36,13262.99,三室两厅两卫,湖悦山色
胡俊,双浦镇双灵村委旁,120.0223464,30.1335607,60,男,杭州市,住宅-小高层,组合贷款,1519967,113.6,13379.99,三室两厅两卫,湖悦山色
南天,湘建线附近,120.1907116,30.10227957,60,女,杭州市,住宅-高层,商业贷款,1196349,88.75,13479.99,三室两厅一卫,湖悦山色
董政,西门路62,119.5698944,30.09670179,60,女,杭州市,住宅-高层,商业贷款,1704006,126.41,13479.99,四室两厅两卫,湖悦山色
陈帅,苋浦西路108号韦恩教育3楼,119.9381776,30.05383744,60,女,杭州市,商业-公寓,商业贷款,1180684,88.64,13319.99,三室两厅一卫,湖悦山色
郭家,文教北路28号,119.9345527,30.0517157,60,女,杭州市,住宅-小高层,商业贷款,1202562,88.75,13549.99,三室两厅一卫,湖悦山色
吴雪,富春街道横凉亭路11号,119.9264564,30.05017367,60,男,杭州市,住宅-高层,商业贷款,1206389,88.64,13609.98,三室两厅一卫,湖悦山色
孙帅,横凉亭路11号,119.9263205,30.05016185,60,男,杭州市,住宅-高层,商业贷款,1214367,88.64,13699.99,三室两厅一卫,湖悦山色
王進,江滨西大道159号,119.933497,30.02401763,60,男,杭州市,住宅-小高层,商业贷款,1183037,88.75,13329.99,三室两厅一卫,湖悦山色
潘远,分水镇武盛街3-2,119.4390127,29.93281487,60,男,杭州市,住宅-高层,商业贷款,1214099,88.75,13679.99,三室两厅一卫,湖悦山色
高影,龙门镇龙门古镇内,119.9487731,29.90324317,60,男,杭州市,住宅-高层,商业贷款,1719288,126.41,13600.89,四室两厅两卫,湖悦山色
于潇,龙门镇牌楼龙门古镇内,119.9458508,29.90140049,60,男,杭州市,商业-公寓,商业贷款,1196995,88.91,13463,三室两厅一卫,湖悦山色
景自,方埠桐千路828号,119.6147254,29.84406228,60,男,杭州市,住宅-高层,商业贷款,1677516,126.41,13270.44,四室两厅两卫,湖悦山色
张晓 (2),迎春南路453号,119.6831752,29.79740051,60,女,杭州市,住宅-高层,商业贷款,1193980,88.64,13469.99,三室两厅一卫,湖悦山色
周天,迎春南路39号建业大厦25F,119.6937663,29.78913408,60,女,杭州市,商业-公寓,商业贷款,1197525,88.64,13509.98,三室两厅一卫,湖悦山色
王秋,琴溪路199号,119.6793558,29.78319523,60,男,杭州市,住宅-小高层,商业贷款,1539168,115.38,13339.99,三室两厅两卫,湖悦山色
刘子,城南街道乔林路1057号,119.6908001,29.7745929,60,男,杭州市,住宅-小高层,商业贷款,1540322,115.38,13349.99,三室两厅两卫,湖悦山色
刘金,排岭北路附近,119.0422465,29.60656934,60,男,杭州市,住宅-高层,商业贷款,1549552,115.38,13429.99,三室两厅两卫,湖悦山色
李芝,健康南路与康安路交叉口西150米,119.2832496,29.47783511,63,男,杭州市,住宅-高层,商业贷款,1198663,89.12,13449.99,三室两厅一卫,湖悦山色
董鹏,严东关路与拱新路交叉口西南100米,119.2732334,29.47311125,63,女,杭州市,住宅-高层,商业贷款,1177274,89.12,13209.99,三室两厅一卫,湖悦山色
王红,杭州钱江经济开发区顺风路536号,120.2483611,30.47316143,63,男,杭州市,住宅-小高层,商业贷款,1633484,126.19,12944.64,四室两厅两卫,湖悦山色
梁新,临平街道沿山路45号,120.2903256,30.42725573,63,男,杭州市,住宅-小高层,商业贷款,1916411,143.29,13374.35,四室两厅两卫,湖悦山色
庄玉,104国道西100米,120.0241014,30.37013463,63,男,杭州市,住宅-高层,一次性,1952889,143.29,13628.93,四室两厅两卫,湖悦山色
孙毅,藻天线,119.4458251,30.32183672,63,女,杭州市,住宅-小高层,商业贷款,1328057,97.13,13672.98,三室两厅一卫,湖悦山色
董林,下沙街道学林街280-300号杭州电子科技大学,120.3419579,30.31313316,63,女,杭州市,商业-公寓,商业贷款,1200637,88.51,13564.99,三室两厅一卫,湖悦山色
韩帅,潮王路18号浙江工业大学,120.1632919,30.29547243,63,男,杭州市,住宅-高层,组合贷款,1324172,97.13,13632.99,三室两厅一卫,湖悦山色
张珍,叶青兜路59号,120.1509584,30.28537186,63,女,杭州市,住宅-高层,商业贷款,1968517,143.29,13737.99,四室两厅两卫,湖悦山色
原丹,西湖文化广场2,120.1602702,30.27875053,63,女,杭州市,住宅-小高层,商业贷款,1276910,97.13,13146.4,三室两厅一卫,湖悦山色
姚冬,西湖文化广场f区负1层,120.1586685,30.27904952,63,女,杭州市,住宅-高层,商业贷款,1327417,97.14,13664.99,三室两厅一卫,湖悦山色
李清,天目山路148号浙江大学西溪校区,120.1368563,30.2754024,63,女,杭州市,商业-商铺,商业贷款,1525600,114.75,13294.99,三室两厅两卫,湖悦山色
郑军,延安路489号,120.1585149,30.26788829,63,女,杭州市,住宅-小高层,商业贷款,1931657,143.16,13492.99,四室两厅两卫,湖悦山色
李建,浙大路38号浙江大学玉泉校区内,120.1151723,30.262868,63,女,杭州市,住宅-高层,组合贷款,1303743,97.2,13412.99,三室两厅一卫,湖悦山色
高静,建国中路36号,120.1754898,30.25167143,63,男,杭州市,住宅-高层,商业贷款,1310547,97.2,13482.99,三室两厅一卫,湖悦山色
刘淑 (1),钱江路417号附近,120.186418,30.23276254,63,男,杭州市,住宅-小高层,商业贷款,1927362,143.16,13462.99,四室两厅两卫,湖悦山色
王成,江汉路1888号,120.1974114,30.21177693,63,男,杭州市,住宅-高层,商业贷款,1308603,97.2,13462.99,三室两厅一卫,湖悦山色
傅锋,金城路174号汇金星座标B座,120.2412854,30.18402191,63,男,杭州市,商业-商铺,商业贷款,1316379,97.2,13542.99,三室两厅一卫,湖悦山色
白朝,102省道附近,119.1993341,30.17480536,63,男,杭州市,住宅-小高层,商业贷款,1940246,143.16,13552.99,四室两厅两卫,湖悦山色
庞雨,金家桥路37号5层,120.270657,30.16592878,63,男,杭州市,住宅-小高层,商业贷款,1293051,97.2,13302.99,三室两厅一卫,湖悦山色
李建 (1),千岛湖风景区千岛湖风景区内(近新安江水库)龙山岛内,118.9768489,29.60914171,63,男,杭州市,商业-公寓,商业贷款,1285275,97.2,13222.99,三室两厅一卫,湖悦山色
孙金 (1),人民路西100米,119.0329977,29.60636982,63,男,杭州市,住宅-小高层,组合贷款,1298883,97.2,13362.99,三室两厅一卫,湖悦山色
张广,新安江新安东路271号永兴商厦地下一层,119.2881238,29.48655822,63,女,杭州市,住宅-高层,一次性,1312744,97.31,13490.33,三室两厅一卫,湖悦山色
焦园,制造局路639号,121.4819135,31.20439856,74,女,上海市,住宅-高层,商业贷款,1701572,126.86,13412.99,四室两厅两卫,湖悦山色
周明,芷江中路274,121.4671168,31.2611238,74,女,上海市,住宅-高层,商业贷款,1686349,126.86,13292.99,四室两厅两卫,湖悦山色
王瑶,政民路507号,121.4974896,31.30426392,74,女,上海市,住宅-小高层,商业贷款,1638220,126.86,12913.61,四室两厅两卫,湖悦山色
徐科,长乐路536号,121.4516655,31.22218626,74,女,上海市,住宅-小高层,商业贷款,1685341,126.12,13363,四室两厅两卫,湖悦山色
张联,长海路225号,121.5257219,31.31219777,74,女,上海市,住宅-高层,商业贷款,1705270,126.41,13489.99,四室两厅两卫,湖悦山色
王维,长海路168号,121.5237245,31.31061108,74,女,上海市,住宅-高层,商业贷款,1530191,113.6,13469.99,三室两厅两卫,湖悦山色
王大,张衡路528号,121.5897212,31.18862443,74,女,上海市,住宅-高层,商业贷款,1540415,113.6,13559.99,三室两厅两卫,湖悦山色
王彤,云台路1800号,121.5082291,31.1501244,74,女,上海市,住宅-高层,商业贷款,1203730,88.64,13579.99,三室两厅一卫,湖悦山色
李红,友谊支路301号(盘古路友谊支路),121.4821807,31.41180995,74,女,上海市,住宅-小高层,组合贷款,1206112,88.75,13589.99,三室两厅一卫,湖悦山色
王学,友谊路181号,121.4795749,31.40809936,74,女,上海市,住宅-小高层,商业贷款,1204337,88.75,13569.99,三室两厅一卫,湖悦山色
宋健,宜山路600号,121.4178682,31.18025641,74,女,上海市,住宅-高层,商业贷款,1194866,88.64,13479.99,三室两厅一卫,湖悦山色
刘晓 (1),耀华路391号,121.4800303,31.17639502,74,女,上海市,住宅-高层,商业贷款,1695157,126.41,13409.99,四室两厅两卫,湖悦山色
邹寅,严镇路166号(近高科西路),121.5265605,31.19372129,74,女,上海市,住宅-高层,商业贷款,1183343,88.64,13349.99,三室两厅一卫,湖悦山色
刘宜,延长中路301号,121.448983,31.27398319,74,女,上海市,住宅-高层,商业贷款,1131932,88.64,12769.99,三室两厅一卫,湖悦山色
高延,延安西路221号,121.4369377,31.22031886,74,女,上海市,住宅-高层,商业贷款,1547245,115.38,13409.99,三室两厅两卫,湖悦山色
陈青,徐家汇路573号,121.4675407,31.20856209,74,女,上海市,住宅-高层,商业贷款,1204010,89.12,13509.99,三室两厅一卫,湖悦山色
王青,新松江路650号,121.221649,31.04272196,74,女,上海市,住宅-高层,一次性,1476804,115.38,12799.48,三室两厅两卫,湖悦山色
宋凤,新华路540号,121.417973,31.20666942,74,女,上海市,住宅-高层,商业贷款,1215287,89.13,13634.99,三室两厅一卫,湖悦山色
王军,新村路389号,121.4266951,31.26860071,74,女,上海市,住宅-小高层,商业贷款,1525670,115.45,13214.98,三室两厅两卫,湖悦山色
张连 (1),武进路85号,121.4849799,31.25513302,74,女,上海市,住宅-高层,商业贷款,1203348,89.17,13494.99,三室两厅一卫,湖悦山色
李雪,乌鲁木齐中路12号,121.4383408,31.2180034,74,女,上海市,住宅-高层,商业贷款,1676832,126.22,13284.99,四室两厅两卫,湖悦山色
潘震,文翔路1485号附近,121.2214188,31.04342135,74,女,上海市,住宅-高层,商业贷款,1315431,97.13,13542.99,三室两厅一卫,湖悦山色
张慧,万源路399号,121.3903148,31.14104495,74,女,上海市,住宅-高层,商业贷款,1951322,143.29,13617.99,四室两厅两卫,湖悦山色
秦猛,宛平南路725号,121.4459106,31.18989655,74,女,上海市,住宅-高层,商业贷款,1316402,97.13,13552.99,三室两厅一卫,湖悦山色
钟京,泰青公路356号,121.5603844,30.98342293,74,男,上海市,住宅-小高层,商业贷款,1324172,97.13,13632.99,三室两厅一卫,湖悦山色
袁玉,松江工业区新松江路650号,121.2243531,31.04400242,74,男,上海市,住宅-小高层,组合贷款,1327086,97.13,13662.99,三室两厅一卫,湖悦山色
宋庆,上海市浦东新区塘桥街道东方,121.5184175,31.20780938,74,男,上海市,住宅-高层,商业贷款,1947024,143.29,13588,四室两厅两卫,湖悦山色
高洁 (1),瑞金二路197号,121.4630542,31.2137458,74,男,上海市,住宅-小高层,商业贷款,1979980,143.29,13817.99,四室两厅两卫,湖悦山色
赵冰,瞿溪路500号,121.482634,31.20365803,74,男,上海市,住宅-高层,商业贷款,1330000,97.13,13692.99,三室两厅一卫,湖悦山色
李华 (1),青海路44号,121.459555,31.23184043,74,男,上海市,住宅-小高层,商业贷款,1330000,97.13,13692.99,三室两厅一卫,湖悦山色
荆香,普安路185号,121.4747912,31.22472037,74,男,上海市,住宅-高层,商业贷款,1974249,143.29,13778,四室两厅两卫,湖悦山色
卢玉,浦江镇江月路2000号,121.4941582,31.0837928,74,男,上海市,住宅-小高层,商业贷款,1326115,97.13,13652.99,三室两厅一卫,湖悦山色
含笑,浦建路160号,121.518011,31.20908663,74,男,上海市,住宅-高层,商业贷款,1326115,97.13,13652.99,三室两厅一卫,湖悦山色
周甡,墨玉北路700号,121.1589752,31.32430446,74,男,上海市,住宅-高层,商业贷款,1283505,97.13,13214.3,三室两厅一卫,湖悦山色
程洪,泸定路355号,121.3819109,31.22859819,74,男,上海市,住宅-高层,商业贷款,1959920,143.29,13678,四室两厅两卫,湖悦山色
蒋美,灵山路845号,121.5469252,31.23470097,74,男,上海市,住宅-小高层,商业贷款,1316402,97.13,13552.99,三室两厅一卫,湖悦山色
乔承,控江路1665号,121.5134267,31.27530467,74,男,上海市,住宅-小高层,商业贷款,1948456,143.29,13597.99,四室两厅两卫,湖悦山色
邓爽,金山区漕廊公路2901号,121.3353111,30.79348255,74,男,上海市,住宅-高层,商业贷款,1308631,97.13,13472.98,三室两厅一卫,湖悦山色
赵芬,嘉定新城马陆镇希望路999号(近永盛路),121.2544915,31.33745087,74,男,上海市,住宅-小高层,商业贷款,1291148,97.13,13292.99,三室两厅一卫,湖悦山色
王天,即墨路150号,121.5079004,31.23965625,74,男,上海市,住宅-高层,商业贷款,1291148,97.13,13292.99,三室两厅一卫,湖悦山色
訾东,黄家花园路800号,121.3157165,31.27094003,74,男,上海市,住宅-小高层,商业贷款,1836690,143.29,12817.99,四室两厅两卫,湖悦山色
杜志,环湖西三路222号,121.9189787,30.88771429,74,男,上海市,住宅-小高层,商业贷款,1324503,97.14,13634.99,三室两厅一卫,湖悦山色
刘欢,淮海西路241,121.4212955,31.19961012,74,男,上海市,住宅-高层,组合贷款,1329360,97.14,13684.99,三室两厅一卫,湖悦山色
李爱,沪闵路9585号,121.4305972,31.16872032,74,男,上海市,住宅-小高层,商业贷款,1333246,97.14,13724.99,三室两厅一卫,湖悦山色
岳友,虹许路831号,121.3833049,31.19450569,74,男,上海市,商业-公寓,商业贷款,1324503,97.14,13634.99,三室两厅一卫,湖悦山色
岳友 (1),红枫路525号,121.5918565,31.24208915,74,男,上海市,商业-公寓,商业贷款,1941678,143.16,13562.99,四室两厅两卫,湖悦山色
白丽,衡山路910,121.4340079,31.19805576,74,男,上海市,商业-公寓,商业贷款,1314435,97.2,13522.99,三室两厅一卫,湖悦山色
毛明,福建中路201号附近,121.4795205,31.23558185,74,男,上海市,住宅-高层,商业贷款,1321239,97.2,13592.99,三室两厅一卫,湖悦山色
阚欣,凤阳路与南北高架路出口交叉口东50米,121.4624886,31.2349444,74,男,上海市,住宅-小高层,商业贷款,1314435,97.2,13522.99,三室两厅一卫,湖悦山色
杨姝,凤阳路415号,121.4628257,31.23400769,74,男,上海市,住宅-高层,商业贷款,1925930,143.16,13452.99,四室两厅两卫,湖悦山色
龙霞,枫林路180号,121.4492621,31.19966379,74,男,上海市,商业-公寓,商业贷款,1290135,97.2,13272.99,三室两厅一卫,湖悦山色
苗圃,汾阳路83号,121.4489072,31.21109747,74,男,上海市,商业-公寓,商业贷款,1925930,143.16,13452.99,四室两厅两卫,湖悦山色
陈一三,方斜路有419,121.4789271,31.21618221,74,男,上海市,商业-公寓,商业贷款,1971658,143.31,13757.99,四室两厅两卫,湖悦山色
刘相,东江湾路与黄渡路交叉口西南100米,121.4760147,31.2670838,74,男,上海市,住宅-小高层,公积金贷款,1948728,143.31,13597.99,四室两厅两卫,湖悦山色
周柏,大林路358号,121.4790657,31.2141226,74,男,上海市,商业-公寓,商业贷款,1649295,126.86,13000.91,四室两厅两卫,湖悦山色
李铭,崇明南门路25号,121.3943389,31.61839097,74,男,上海市,商业-公寓,商业贷款,1650684,126.12,13088.2,四室两厅两卫,湖悦山色
马超,北京西路1400弄24号,121.4437057,31.23163604,74,男,上海市,住宅-小高层,商业贷款,1202164,88.44,13592.99,三室两厅一卫,湖悦山色
张会,宝庆路19号,121.4457803,31.21206943,74,男,上海市,住宅-小高层,一次性,1175723,88.55,13277.5,三室两厅一卫,湖悦山色